stop_id,stop_code,stop_name,stop_desc,stop_lat,stop_lon,zone_id,stop_url,location_type,wheelchair_boarding,parent_station,platform_code
B00001P,,18 Office Park,,-6.299146,106.8321,1,,0,2,,
B00002P,,ABA,,-6.194149,106.83939,1,,0,2,,
B00003P,,Acacia Residence,,-6.263358,106.75675,1,,0,2,,
B00004P,,ACC Simatupang,,-6.304475,106.84858,1,,0,2,,
B00005P,,ACE Hardware,,-6.387532,106.82738,1,,0,2,,
B00006P,,ACE Hardware Kelapa Gading,,-6.157009,106.89905,1,,0,2,,
B00008P,,Adam Malik 1,,-6.236396,106.74776,1,,0,2,,
B00011P,,Agrowisata Cilangkap,,-6.339786,106.9013,1,,0,2,,
B00013P,,Ahmad Yani Pisangan Baru,,-6.211477,106.87374,1,,0,2,,
B00014P,,Airy Eco Binus,,-6.195282,106.78881,1,,0,2,,
B00015P,,Akademi Farmasi Mahadhika,,-6.312819,106.8693,1,,0,2,,
B00016P,,Akbid Yaspen Tugu Ibu,,-6.360213,106.8835,1,,0,2,,
B00017P,,Akper Fatmawati Pondok Labu,,-6.313187,106.79931,1,,0,2,,
B00018P,,AKR Tower,,-6.190732,106.76743,1,,0,2,,
B00019P,,Akses Bawah Flyover Raya Bogor,,-6.307687,106.86456,1,,0,2,,
B00020P,,Akses Bawah Jembatan Marunda,,-6.110376,106.94129,1,,0,2,,
B00021P,,Akses Bawah Sungai Landak,,-6.109857,106.94134,1,,0,2,,
B00022P,,Akses Jembatan Ciliwung Balekambang,,-6.283554,106.84945,1,,0,2,,
B00026P,,Al Izhar Pondok Labu 1,,-6.311534,106.79094,1,,0,2,,
B00027P,,Al Izhar Pondok Labu 2,,-6.311504,106.79104,1,,0,2,,
B00028P,,Al Khairiyah School,,-6.236593,106.9176,1,,0,2,,
B00029P,,Al Mahbubiyah,,-6.291866,106.81255,1,,0,2,,
B00031P,,Al Wathoniyah 1,,-6.192036,106.9353,1,,0,2,,
B00032P,,Al Wathoniyah 2,,-6.192425,106.93568,1,,0,2,,
B00033P,,Aljabr Islamic School,,-6.308023,106.80371,1,,0,2,,
B00034P,,Allianz,,-6.209233,106.83076,1,,0,2,,
B00036P,,Ampera 2,,-6.292641,106.81563,1,,0,2,,
B00037P,,Ampera 3,,-6.291196,106.81706,1,,0,2,,
B00038P,,Ampera 4,,-6.291345,106.8172,1,,0,2,,
B00039P,,Ampera Garden,,-6.288794,106.81818,1,,0,2,,
B00040P,,Ampera Yos Sudarso,,-6.122624,106.89322,1,,0,2,,
B00041P,,Ananda Pulo Gadung,,-6.185254,106.90716,1,,0,2,,
B00042P,,Andara Margasatwa 1,,-6.313471,106.80369,1,,0,2,,
B00043P,,Andara Margasatwa 2,,-6.313577,106.80356,1,,0,2,,
B00044P,,Andara Margasatwa 3,,-6.312832,106.80338,1,,0,2,,
B00045P,,Andara Margasatwa 4,,-6.312578,106.80356,1,,0,2,,
B00046P,,Aneka Apotek,,-6.151647,106.87959,1,,0,2,,
B00048P,,Aneka PIK Penggilingan,,-6.202636,106.92867,1,,0,2,,
B00051P,,Anggrek Neli Murni,,-6.18968,106.79438,1,,0,2,,
B00052P,,Antena III,,-6.250453,106.79171,1,,0,2,,
B00053P,,Antena II,,-6.25033,106.79163,1,,0,2,,
B00054P,,Apartemen Gading Nias,,-6.154358,106.91615,1,,0,2,,
B00055P,,Apartemen Kedoya Elok 1,,-6.18847,106.768804,1,,0,2,,
B00056P,,Apartemen Kedoya Elok 2,,-6.188259,106.76855,1,,0,2,,
B00057P,,Apartemen Metro Sunter,,-6.13396,106.87208,1,,0,2,,
B00058P,,Apartemen Simprug Teras,,-6.232197,106.78874,1,,0,2,,
B00059P,,Apotik Emilia Rawamangun,,-6.202019,106.88477,1,,0,2,,
B00060P,,Apotik Rini Rawamangun,,-6.199914,106.88595,1,,0,2,,
B00062P,,Aries Utama,,-6.197385,106.75145,1,,0,2,,
B00063P,,Aries Utama III,,-6.197454,106.74602,1,,0,2,,
B00064P,,Ariobimo Sentral,,-6.227471,106.83328,1,,0,2,,
B00065P,,Arion Mall,,-6.193631,106.89068,1,,0,2,,
B00066P,,Arsip Nasional RI 1,,-6.279439,106.81987,1,,0,2,,
B00067P,,Arsip Nasional RI 2,,-6.279481,106.81995,1,,0,2,,
B00068P,,Artha Gading 1,,-6.144287,106.8907,1,,0,2,,
B00069P,,ASMI 1,,-6.17171,106.88889,1,,0,2,,
B00070P,,ASMI 2,,-6.172158,106.88894,1,,0,2,,
B00071P,,Asrama Brimob Cilincing,,-6.104565,106.93689,1,,0,2,,
B00072P,,Asrama Haji Pondok Gede,,-6.290541,106.88827,1,,0,2,,
B00073P,,Asrama Marinir Marunda 1,,-6.114597,106.95034,1,,0,2,,
B00074P,,Asrama Marinir Marunda 2,,-6.114579,106.95023,1,,0,2,,
B00075P,,Asrama Polri Cideng,,-6.178925,106.81262,1,,0,2,,
B00076P,,Asshomadiyah Medicare Centre 1,,-6.295486,106.89804,1,,0,2,,
B00077P,,Asshomadiyah Medicare Centre 2,,-6.29557,106.89825,1,,0,2,,
B00078P,,Astek,,-6.291175,106.66598,1,,0,2,,
B00079P,,Aston Pluit 1,,-6.124693,106.79511,1,,0,2,,
B00080P,,Aston Pluit 2,,-6.124268,106.79419,1,,0,2,,
B00081P,,At Thahiriah 1,,-6.210032,106.93803,1,,0,2,,
B00082P,,At Thahiriah 2,,-6.210011,106.93809,1,,0,2,,
B00084P,,Atrium 2,,-6.17687,106.84042,1,,0,2,,
B00085P,,Aula Simfonia,,-6.152158,106.8436,1,,0,2,,
B00086P,,AURI Jatibaru,,-6.182985,106.81407,1,,0,2,,
B00087P,,Auto 2000,,-6.25922,106.78922,1,,0,2,,
B00088P,,Awab Dalam,,-6.224877,106.8696,1,,0,2,,
B00089P,,Ayam Kalasan Pisangan Lama,,-6.210495,106.87869,1,,0,2,,
B00090P,,Azhari Islamic School 1,,-6.305186,106.77789,1,,0,2,,
B00091P,,Azhari Islamic School 2,,-6.305309,106.77796,1,,0,2,,
B00092P,,Bacang Lubang Buaya,,-6.288956,106.89696,1,,0,2,,
B00093P,,Badan Diklat Kejaksaan RI,,-6.304295,106.82095,1,,0,2,,
B00025P,,Al Barkah,,-6.219597,106.84565,1,,0,2,,
B00035P,,Ampera 1,,-6.292069,106.81774,1,,0,2,,
B00096P,,Badan Penghubung Sulawesi Tengah,,-6.175029,106.80734,1,,0,2,,
B00098P,,Baileys Lagoon City,,-6.315461,106.74677,1,,0,2,,
B00099P,,Bakti Mulia 400,,-6.275838,106.77675,1,,0,2,,
B00100P,,Baladewa Residence,,-6.229648,106.91038,1,,0,2,,
B00101P,,Balai Kartini,,-6.234791,106.82457,1,,0,2,,
B00102P,,Balai Kota 1,,-6.180598,106.82847,1,,0,2,,
B00103P,,Balai Nikah Kembangan Utara,,-6.181467,106.73448,1,,0,2,,
B00104P,,Balai Pertamina,,-6.229555,106.79052,1,,0,2,,
B00105P,,Balai Sudirman,,-6.227043,106.84742,1,,0,2,,
B00106P,,Balai Kota Depok 2,,-6.394973,106.82277,1,,0,2,,
B00107P,,Bamed Health Care,,-6.203485,106.73102,1,,0,2,,
B00108P,,Bandar Djakarta Bekasi,,-6.227085,106.99683,1,,0,2,,
B00109P,,Bangau VI,,-6.169278,106.84271,1,,0,2,,
B00110P,,Bangunan Timur 1,,-6.189634,106.88551,1,,0,2,,
B00111P,,Bangunan Timur 2,,-6.189526,106.88571,1,,0,2,,
B00113P,,Bank Indonesia 2,,-6.182667,106.82275,1,,0,2,,
B00114P,,UPT. LLHD 1,,-6.22577,106.83507,1,,0,2,,
B00115P,,UPT. LLHD 2,,-6.225501,106.83489,1,,0,2,,
B00116P,,Bapindo Menteng,,-6.187095,106.83566,1,,0,2,,
B00117P,,Batalyon Kavaleri 1,,-6.252806,106.65064,1,,0,2,,
B00118P,,Batalyon Kavaleri 2,,-6.252704,106.65081,1,,0,2,,
B00119P,,Batan H Kaman,,-6.296551,106.77338,1,,0,2,,
B00120P,,Baung,,-6.302036,106.83656,1,,0,2,,
B00121P,,Baywalk 1,,-6.109908,106.77828,1,,0,2,,
B00122P,,Baywalk 2,,-6.110359,106.77961,1,,0,2,,
B00123P,,BBPK Jakarta,,-6.302219,106.798,1,,0,2,,
B00124P,,Bella Terra,,-6.175296,106.89567,1,,0,2,,
B00125P,,Benhil 1,,-6.217304,106.8154,1,,0,2,,
B00126P,,Benhil 2,,-6.216775,106.8154,1,,0,2,,
B00128P,,Benteng Betawi,,-6.174158,106.65559,1,,0,2,,
B00130P,,Bermis 1,,-6.178022,106.89853,1,,0,2,,
B00131P,,Bermis 2,,-6.178353,106.89841,1,,0,2,,
B00132P,,Beverly Tower,,-6.291805,106.78636,1,,0,2,,
B00133P,,Bhayangkara 1,,-6.236949,106.64549,1,,0,2,,
B00134P,,Bhayangkara 2,,-6.236714,106.64559,1,,0,2,,
B00135P,,Bidan Ningsih Joglo,,-6.216023,106.72909,1,,0,2,,
B00136P,,Bidara 1,,-6.106097,106.9595,1,,0,2,,
B00137P,,Bidara 2,,-6.106075,106.95942,1,,0,2,,
B00138P,,Bidara Cina 1,,-6.229954,106.86735,1,,0,2,,
B00139P,,Bidara Cina 2,,-6.22994,106.86709,1,,0,2,,
B00140P,,Billy Moon,,-6.248271,106.93093,1,,0,2,,
B00141P,,Billy Moon 2,,-6.248131,106.92944,1,,0,2,,
B00142P,,Bimbel Calistung,,-6.222933,106.93901,1,,0,2,,
B00144P,,Bintaro,,-6.271245,106.75133,1,,0,2,,
B00145P,,Bintaro Gg. Masjid,,-6.27026,106.75217,1,,0,2,,
B00146P,,Bintaro Kodam,,-6.260196,106.76594,1,,0,2,,
B00147P,,Bintaro Park VIew,,-6.257977,106.75969,1,,0,2,,
B00148P,,Bintaro Xchange,,-6.286813,106.72865,1,,0,2,,
B00149P,,Binus Kampus Kijang,,-6.194535,106.78757,1,,0,2,,
B00150P,,Binus Syahdan,,-6.200725,106.78472,1,,0,2,,
B00151P,,Binus University,,-6.201811,106.78265,1,,0,2,,
B00152P,,BKKBN 1,,-6.252902,106.88084,1,,0,2,,
B00153P,,BKKBN 2,,-6.253103,106.88108,1,,0,2,,
B00154P,,BKN 1,,-6.258026,106.86955,1,,0,2,,
B00155P,,BKN 2,,-6.258262,106.86984,1,,0,2,,
B00156P,,Blok A,,-6.188462,106.81558,1,,0,2,,
B00158P,,Blok E,,-6.18497,106.81463,1,,0,2,,
B00159P,,Blok F,,-6.188552,106.81249,1,,0,2,,
B00160P,,Blue Gas Pulo Gebang,,-6.210605,106.95645,1,,0,2,,
B00163P,,BNI Syariah,,-6.227256,106.83291,1,,0,2,,
B00164P,,Bona Indah Plaza,,-6.301283,106.78084,1,,0,2,,
B00165P,,Bongkaran Tanah Abang,,-6.189421,106.81159,1,,0,2,,
B00166P,,Boulevard Bukit Gading Raya,,-6.15515,106.89579,1,,0,2,,
B00167P,,Boulevard Hijau THB,,-6.183321,106.98406,1,,0,2,,
B00168P,,Boulevard Inspeksi Kali Sunter,,-6.151094,106.88901,1,,0,2,,
B00169P,,Boulevard Janur Elok Raya 1,,-6.150581,106.90954,1,,0,2,,
B00170P,,Boulevard Janur Elok Raya 2,,-6.150553,106.90922,1,,0,2,,
B00171P,,Boulevard Kelapa Cengkir Raya,,-6.165966,106.90211,1,,0,2,,
B00172P,,Boulevard Kelapa Hybrida Raya 1,,-6.148453,106.90965,1,,0,2,,
B00173P,,Boulevard Kelapa Hybrida Raya 2,,-6.148396,106.90935,1,,0,2,,
B00174P,,Boulevard Pelepah Raya,,-6.159256,106.90317,1,,0,2,,
B00175P,,BP3IP Sunter,,-6.137845,106.87619,1,,0,2,,
B00176P,,BPHN,,-6.259724,106.86834,1,,0,2,,
B00177P,,BPJS Jaksel,,-6.249682,106.84318,1,,0,2,,
B00178P,,BPJS Kesehatan Sultan Hasanudin,,-6.242517,106.80229,1,,0,2,,
B00179P,,BPJS Ketenagakerjaan Marunda,,-6.104983,106.93254,1,,0,2,,
B00180P,,BPK Penabur Kelapa Gading,,-6.147463,106.90796,1,,0,2,,
B00182P,,BPPSPAM,,-6.244679,106.80918,1,,0,2,,
B00183P,,BRI Jakarta Kota,,-6.135104,106.80752,1,,0,2,,
B00129P,,Bercabuana Sakti,,-6.270086,106.76549,1,,0,2,,
B00184P,,BRI Menteng,,-6.186792,106.83514,1,,0,2,,
B00185P,,Brimob Pejaten Barat 2,,-6.270925,106.84644,1,,0,2,,
B00188P,,BSD Plaza 1,,-6.278263,106.66103,1,,0,2,,
B00189P,,BSD Plaza 2,,-6.280847,106.66305,1,,0,2,,
B00190P,,BSI 1,,-6.237724,106.76225,1,,0,2,,
B00191P,,BSI 2,,-6.237609,106.76252,1,,0,2,,
B00192P,,BSI Cengkareng,,-6.147973,106.72781,1,,0,2,,
B00194P,,BTC 2,,-6.258258,107.0206,1,,0,2,,
B00195P,,Buaran Plaza,,-6.217983,106.9235,1,,0,2,,
B00196P,,Buaran Raya,,-6.220456,106.92176,1,,0,2,,
B00197P,,Buddha Tzu Chi,,-6.107998,106.73942,1,,0,2,,
B00198P,,Budhaya Santo Agustinus,,-6.220866,106.92346,1,,0,2,,
B00199P,,Budhi Medika Meruya Utara,,-6.196934,106.73231,1,,0,2,,
B00200P,,Budi Kemulyaan,,-6.180223,106.8178,1,,0,2,,
B00201P,,Budiwarman 1,,-6.279071,106.87019,1,,0,2,,
B00202P,,Budiwarman 2,,-6.279048,106.870363,1,,0,2,,
B00203P,,Bukit Cinere Indah,,-6.340012,106.77991,1,,0,2,,
B00205P,,Bukit Duri,,-6.21551,106.86293,1,,0,2,,
B00206P,,Bulak Rantai,,-6.284664,106.87123,1,,0,2,,
B00207P,,Bulak Turi,,-6.104952,106.97016,1,,0,2,,
B00208P,,Bulak Turi 2,,-6.105145,106.97009,1,,0,2,,
B00209P,,Bulog,,-6.237665,106.82917,1,,0,2,,
B00211P,,Bumi Jatiwaringin,,-6.275283,106.91282,1,,0,2,,
B00213P,,Bumi Perkemahan Ragunan,,-6.295825,106.82153,1,,0,2,,
B00214P,,Bumiputera,,-6.206839,106.82234,1,,0,2,,
B00215P,,Bunda Hati Kudus Jelambar,,-6.165552,106.78484,1,,0,2,,
B00216P,,Bundaran Alam Sutera 1,,-6.244107,106.64889,1,,0,2,,
B00217P,,Bundaran Alam Sutera 2,,-6.243905,106.64901,1,,0,2,,
B00218P,,Bundaran Cipinang Kebembem,,-6.211974,106.88891,1,,0,2,,
B00219P,,Bundaran Harapan Indah,,-6.183719,106.97727,1,,0,2,,
B00220P,,Bundaran Semper,,-6.128609,106.91759,1,,0,2,,
B00221P,,Bundaran Senayan 1,,-6.227445,106.80187,1,,0,2,,
B00222P,,Bundaran Senayan 2,,-6.227877,106.80068,1,,0,2,,
B00223P,,Bundaran Stainless Harapan Indah,,-6.178666,106.98132,1,,0,2,,
B00226P,,Buperta Cibubur,,-6.369608,106.896189,1,,0,2,,
B00227P,,Carrefour Buaran,,-6.218653,106.9237,1,,0,2,,
B00228P,,Carrefour Harapan Indah,,-6.187189,106.97684,1,,0,2,,
B00229P,,Carrefour Lebak Bulus,,-6.287529,106.7768,1,,0,2,,
B00230P,,Carrefour Meruya Ilir,,-6.197521,106.75129,1,,0,2,,
B00232P,,Cawang Blue Bird,,-6.248836,106.87801,1,,0,2,,
B00233P,,Cawang Blue Bird 2,,-6.248866,106.87753,1,,0,2,,
B00234P,,Cawang Soetoyo 1,,-6.24544,106.87548,1,,0,2,,
B00235P,,Cawang Soetoyo 2,,-6.245259,106.876,1,,0,2,,
B00236P,,Cawang UKI 1,,-6.250807,106.87364,1,,0,2,,
B00237P,,Cek & Ricek,,-6.215349,106.72961,1,,0,2,,
B00238P,,Cempaka,,-6.277541,106.76223,1,,0,2,,
B00239P,,Cempaka Putih Tengah,,-6.176736,106.86444,1,,0,2,,
B00240P,,Cempaka Timur 2,,-6.166318,106.87617,1,,0,2,,
B00241P,,Centennial Tower,,-6.230377,106.82026,1,,0,2,,
B00242P,,Centro Metro Broadway,,-6.116362,106.76143,1,,0,2,,
B00243P,,Cervino Village,,-6.224355,106.85165,1,,0,2,,
B00244P,,Chase Plaza,,-6.210571,106.82129,1,,0,2,,
B00245P,,Child Care Pre School,,-6.257557,106.8009,1,,0,2,,
B00246P,,Ciba,,-6.342837,106.86901,1,,0,2,,
B00247P,,Cibubur Indah II,,-6.35207,106.88704,1,,0,2,,
B00248P,,Cibubur Junction,,-6.368735,106.89366,1,,0,2,,
B00249P,,Cideng Timur,,-6.166537,106.81073,1,,0,2,,
B00250P,,Cikajang Wolter Monginsidi,,-6.239122,106.81084,1,,0,2,,
B00251P,,Cilandak,,-6.29195,106.81519,1,,0,2,,
B00252P,,Cilandak Tengah,,-6.292028,106.802056,1,,0,2,,
B00253P,,Cilandak Town Square,,-6.291991,106.79967,1,,0,2,,
B00254P,,Cililitan,,-6.263311,106.86524,1,,0,2,,
B00255P,,Cililitan Besar 1,,-6.263567,106.86709,1,,0,2,,
B00256P,,Cililitan Besar 2,,-6.263478,106.86694,1,,0,2,,
B00257P,,Cililitan Kecil,,-6.261889,106.86423,1,,0,2,,
B00260P,,Cipinang Baru,,-6.206806,106.89025,1,,0,2,,
B00261P,,Cipinang Baru Bunder,,-6.20713,106.88603,1,,0,2,,
B00262P,,Cipinang BKT,,-6.229448,106.89288,1,,0,2,,
B00263P,,Cipinang Indah,,-6.22943,106.89116,1,,0,2,,
B00264P,,Cipinang Kb. Nanas 1,,-6.231595,106.87615,1,,0,2,,
B00265P,,Cipinang Kb. Nanas 2,,-6.231453,106.87647,1,,0,2,,
B00266P,,Cipinang Lontar,,-6.214031,106.88836,1,,0,2,,
B00267P,,Cipinang Lontar Rusun Polri,,-6.206815,106.88785,1,,0,2,,
B00268P,,Cipinang Melayu Kalimalang,,-6.240168,106.88473,1,,0,2,,
B00269P,,Cipinang Melayu Kalimalang 2,,-6.24004,106.8828,1,,0,2,,
B00270P,,Cipinang Melayu Kalimalang 3,,-6.240143,106.88077,1,,0,2,,
B00271P,,Cipinang Muara III Muara Jaya,,-6.218869,106.8926,1,,0,2,,
B00272P,,Cipta Karya Tata Ruang Pertahanan 1,,-6.179781,106.81041,1,,0,2,,
B00273P,,Cipta Karya Tata Ruang Pertahanan 2,,-6.179903,106.81049,1,,0,2,,
B00274P,,Cipta Rasuna Said,,-6.216146,106.83087,1,,0,2,,
B00275P,,Cipulir 1,,-6.237918,106.7749,1,,0,2,,
B00276P,,Cirendeu Permai,,-6.289561,106.76894,1,,0,2,,
B00278P,,City Walk Sudirman,,-6.209468,106.81783,1,,0,2,,
B00279P,,Classic Hotel,,-6.162308,106.83007,1,,0,2,,
B00281P,,Condet Raya,,-6.280969,106.85517,1,,0,2,,
B00282P,,CPI Belakang 1,,-6.237437,106.89436,1,,0,2,,
B00283P,,CPI Belakang 2,,-6.237257,106.89416,1,,0,2,,
B00284P,,Curug Kalimalang,,-6.24774,106.92454,1,,0,2,,
B00285P,,Cut Meutia,,-6.187542,106.83294,1,,0,2,,
B00286P,,Cyberpark Karawaci,,-6.222465,106.61844,1,,0,2,,
B00287P,,D Mall,,-6.387291,106.8273,1,,0,2,,
B00288P,,Daarus Saada Duri Kosambi,,-6.176932,106.7079,1,,0,2,,
B00289P,,Dahlia Town House,,-6.302547,106.78796,1,,0,2,,
B00290P,,Dammara,,-6.25419,106.83146,1,,0,2,,
B00291P,,Dana Reksa,,-6.181365,106.82451,1,,0,2,,
B00292P,,Danau Agung 1,,-6.147281,106.8582,1,,0,2,,
B00293P,,Danau Tmp Kalibata,,-6.255698,106.84944,1,,0,2,,
B00295P,,Dapsus 1,,-6.301135,106.79484,1,,0,2,,
B00296P,,Dapsus 2,,-6.301728,106.79463,1,,0,2,,
B00297P,,Dapsus 3,,-6.301746,106.79477,1,,0,2,,
B00298P,,Dapsus 4,,-6.301649,106.79472,1,,0,2,,
B00299P,,Darmawangsa Square,,-6.253048,106.80116,1,,0,2,,
B00300P,,Darul Aitam Pondok Pinang,,-6.274498,106.77381,1,,0,2,,
B00301P,,Dato Tonggara,,-6.283918,106.87222,1,,0,2,,
B00302P,,Depo LRT Pegangsaan Dua,,-6.15505,106.9137,1,,0,2,,
B00304P,,Dewan Pers,,-6.182996,106.82709,1,,0,2,,
B00305P,,Dharma Bakti Cijantung,,-6.318713,106.86463,1,,0,2,,
B00306P,,Dinas Kebersihan Duren Sawit,,-6.219815,106.92338,1,,0,2,,
B00307P,,Dinas Lingkungan Hidup,,-6.264168,106.87033,1,,0,2,,
B00308P,,Dinas Olahraga Dan Pemuda,,-6.219715,106.86802,1,,0,2,,
B00309P,,Dinas Pengawasan Dan Penertiban Bangunan,,-6.182268,106.81114,1,,0,2,,
B00310P,,Dipo Lokomotif Tanah Abang,,-6.182333,106.81089,1,,0,2,,
B00311P,,Dipo Tower,,-6.203007,106.80074,1,,0,2,,
B00312P,,Direktorat Jenderal Hortikultura,,-6.285538,106.8393,1,,0,2,,
B00313P,,Direktorat Jenderal Pajak,,-6.224628,106.81558,1,,0,2,,
B00314P,,Dirjen Anggaran,,-6.227253,106.89881,1,,0,2,,
B00316P,,Dishub Jakut,,-6.122876,106.89367,1,,0,2,,
B00317P,,Dittopad,,-6.174759,106.84823,1,,0,2,,
B00318P,,Dittopad 2,,-6.174618,106.85009,1,,0,2,,
B00319P,,DPD Golkar,,-6.197504,106.84022,1,,0,2,,
B00320P,,DPP FPI,,-6.194368,106.80536,1,,0,2,,
B00321P,,DPR MPR 1,,-6.208517,106.80379,1,,0,2,,
B00322P,,DPR MPR 2,,-6.206314,106.80194,1,,0,2,,
B00324P,,Dukuh 5,,-6.289913,106.87753,1,,0,2,,
B00325P,,Dukuh Atas 3,,-6.20565,106.8225,1,,0,2,,
B00326P,,Dukuh Atas 4,,-6.204819,106.8221,1,,0,2,,
B00327P,,Dukuh Permai Residence,,-6.302631,106.8785,1,,0,2,,
B00328P,,Duren Sawit,,-6.233341,106.91006,1,,0,2,,
B00329P,,Duren Tiga 1,,-6.252132,106.82702,1,,0,2,,
B00330P,,Duri Kepa 1,,-6.185474,106.76836,1,,0,2,,
B00331P,,Duri Kepa 2,,-6.185432,106.76854,1,,0,2,,
B00332P,,Dwijaya,,-6.262287,106.78855,1,,0,2,,
B00333P,,Ekowisata Mangrove,,-6.121673,106.75482,1,,0,2,,
B00334P,,EKS Komplek Gaya Motor,,-6.105771,106.93063,1,,0,2,,
B00335P,,Embun Pagi Islamic Elementary School,,-6.248768,106.92911,1,,0,2,,
B00336P,,Embun Pagi Islamic School,,-6.247711,106.91892,1,,0,2,,
B00338P,,Enggano 1,,-6.110213,106.89246,1,,0,2,,
B00339P,,Enggano 2,,-6.110031,106.89246,1,,0,2,,
B00340P,,Epiwalk Epicentrum,,-6.217666,106.83547,1,,0,2,,
B00341P,,Erha Clinic,,-6.147269,106.89796,1,,0,2,,
B00342P,,Essence Dharmawangsa,,-6.257365,106.80495,1,,0,2,,
B00344P,,Exit Tol UKI,,-6.257445,106.87049,1,,0,2,,
B00346P,,Farmasi RP Soeroso,,-6.187939,106.83608,1,,0,2,,
B00347P,,Fatmawati 1,,-6.292571,106.79743,1,,0,2,,
B00348P,,Fatmawati 2,,-6.291994,106.79606,1,,0,2,,
B00349P,,Flyover Bintaro,,-6.25748,106.76478,1,,0,2,,
B00350P,,Flyover Cipinang Lontar,,-6.212876,106.88891,1,,0,2,,
B00351P,,Flyover HBR Motik 1,,-6.152627,106.84989,1,,0,2,,
B00352P,,Flyover HBR Motik 2,,-6.152807,106.8506,1,,0,2,,
B00354P,,Flyover Jatinegara 1,,-6.215301,106.87356,1,,0,2,,
B00355P,,Flyover Jatinegara 2,,-6.215074,106.87332,1,,0,2,,
B00356P,,Flyover Jatinegara Atas,,-6.214553,106.87388,1,,0,2,,
B00357P,,Flyover Jatinegara Bawah,,-6.214707,106.87383,1,,0,2,,
B00358P,,Flyover Kampung Melayu,,-6.22506,106.86483,1,,0,2,,
B00360P,,Flyover Karet 2,,-6.214808,106.81847,1,,0,2,,
B00361P,,Flyover Klender 1,,-6.213499,106.90245,1,,0,2,,
B00362P,,Flyover Klender 2,,-6.213721,106.90252,1,,0,2,,
B00363P,,Flyover Ps. Klender 1,,-6.211058,106.90153,1,,0,2,,
B00364P,,Flyover Ps. Klender 2,,-6.211371,106.90103,1,,0,2,,
B00365P,,Flyover Pondok Kopi,,-6.217758,106.93843,1,,0,2,,
B00366P,,Flyover Pulo Gebang 1,,-6.210497,106.95047,1,,0,2,,
B00367P,,Flyover Pulo Gebang 2,,-6.210438,106.95062,1,,0,2,,
B00368P,,Flyover Radin Inten 1,,-6.216112,106.92439,1,,0,2,,
B00323P,,DPRD DKI Jakarta,,-6.182886,106.82851,1,,0,2,,
B00337P,,Empang 3,,-6.263342,106.84318,1,,0,2,,
B00369P,,Flyover Radin Inten 2,,-6.215843,106.92408,1,,0,2,,
B00370P,,Flyover Semanan Indah 1,,-6.161654,106.72649,1,,0,2,,
B00371P,,Flyover Semanan Indah 2,,-6.161743,106.72693,1,,0,2,,
B00372P,,Flyover Setiabudi,,-6.202064,106.8281,1,,0,2,,
B00373P,,Flyover Slipi Kemanggisan,,-6.189613,106.79742,1,,0,2,,
B00374P,,Flyover Tj. Barat,,-6.303059,106.83998,1,,0,2,,
B00376P,,Formindo Prima Agung,,-6.120335,106.70853,1,,0,2,,
B00377P,,Fresh Market PIK,,-6.1029,106.74123,1,,0,2,,
B00379P,,Gading Griya Lestari,,-6.141405,106.92188,1,,0,2,,
B00380P,,Gading Harmony,,-6.165901,106.90179,1,,0,2,,
B00381P,,Gading Nirwana,,-6.148645,106.91295,1,,0,2,,
B00382P,,Gading Riveria,,-6.148327,106.91277,1,,0,2,,
B00383P,,Gading Serpong 1,,-6.230729,106.64138,1,,0,2,,
B00384P,,Gading Serpong 2,,-6.230464,106.64147,1,,0,2,,
B00385P,,Galeri Nasional,,-6.178553,106.83182,1,,0,2,,
B00386P,,Galeri Niaga Mediterania 1,,-6.116646,106.77135,1,,0,2,,
B00387P,,Galur 1,,-6.174567,106.85493,1,,0,2,,
B00388P,,Galur 2,,-6.174192,106.855,1,,0,2,,
B00389P,,Gama Tower,,-6.22414,106.83303,1,,0,2,,
B00391P,,Gandaria City,,-6.243912,106.7824,1,,0,2,,
B00393P,,Gg. Abdul Hamid,,-6.137241,106.81896,1,,0,2,,
B00394P,,Gg. Ahmad Squadron,,-6.268976,106.87751,1,,0,2,,
B00395P,,Gg. Aim 1,,-6.200344,106.9351,1,,0,2,,
B00396P,,Gg. Aim 2,,-6.200395,106.93515,1,,0,2,,
B00397P,,Gg. Al Khoiriyah Cibubur,,-6.363732,106.88431,1,,0,2,,
B00398P,,Gg. Al Mawaddah Tengah,,-6.287911,106.86292,1,,0,2,,
B00399P,,Gg. Alfa Tanah Tinggi,,-6.18272,106.84839,1,,0,2,,
B00400P,,Gg. Ali,,-6.307683,106.87636,1,,0,2,,
B00401P,,Gg. Amd XXVIII Balekambang,,-6.289318,106.85383,1,,0,2,,
B00403P,,Gg. Anawinka Naga Raya,,-6.223403,106.90762,1,,0,2,,
B00404P,,Gg. Anggur Cipete Dalam,,-6.276068,106.80052,1,,0,2,,
B00405P,,Gg. Ani Raya Condet,,-6.266674,106.86054,1,,0,2,,
B00406P,,Gg. Arba Johar Baru,,-6.185385,106.85234,1,,0,2,,
B00407P,,Gg. Asem Ciracas,,-6.321196,106.87024,1,,0,2,,
B00408P,,Gg. Ash Shirot,,-6.297253,106.89384,1,,0,2,,
B00409P,,Gg. Asmat Petukangan,,-6.244316,106.752,1,,0,2,,
B00410P,,Gg. Ayama,,-6.27204,106.8671,1,,0,2,,
B00411P,,Gg. Baaburroyyani Cibubur,,-6.360225,106.87397,1,,0,2,,
B00412P,,Gg. Balai Rakyat Balekambang,,-6.293289,106.85517,1,,0,2,,
B00414P,,Gg. Bambu Batu Ampar,,-6.281099,106.86023,1,,0,2,,
B00415P,,Gg. Barokah Lingkar Timur,,-6.19658,106.94405,1,,0,2,,
B00416P,,Gg. Barokah Marunda,,-6.12779,106.95874,1,,0,2,,
B00417P,,Gg. Baronang Cibubur,,-6.362516,106.88437,1,,0,2,,
B00418P,,Gg. Baru,,-6.302938,106.91195,1,,0,2,,
B00419P,,Gg. Bengkel Kalisari,,-6.33388,106.85263,1,,0,2,,
B00420P,,Gg. Beringin,,-6.384603,106.8292,1,,0,2,,
B00421P,,Gg. Beringin V RS Soekanto,,-6.22752,106.93304,1,,0,2,,
B00422P,,Gg. Bhakti Lingkar Timur,,-6.197075,106.94408,1,,0,2,,
B00423P,,Gg. Bidan Baru,,-6.327013,106.85027,1,,0,2,,
B00424P,,Gg. Bina Citra Susukan,,-6.312068,106.87178,1,,0,2,,
B00425P,,Gg. Borobudur Ragunan,,-6.306803,106.81679,1,,0,2,,
B00426P,,Gg. Bungur IX Rambutan,,-6.316983,106.88465,1,,0,2,,
B00427P,,Gg. Buntu Sembar,,-6.129992,106.91914,1,,0,2,,
B00428P,,Gg. Burung Dalam,,-6.137017,106.82132,1,,0,2,,
B00429P,,Gg. CC Palmerah,,-6.201889,106.7883,1,,0,2,,
B00430P,,Gg. Cemara Cilandak KKO,,-6.299412,106.81475,1,,0,2,,
B00432P,,Gg. Cengkeh Lubang Buaya,,-6.292786,106.90519,1,,0,2,,
B00433P,,Gg. Ciliwung Cililitan,,-6.263895,106.86222,1,,0,2,,
B00434P,,Gg. Condet Raya Prepedan,,-6.111906,106.70561,1,,0,2,,
B00435P,,Gg. Damai I Rorotan,,-6.150802,106.95604,1,,0,2,,
B00436P,,Gg. Damai Lapangan Tembak,,-6.347401,106.87448,1,,0,2,,
B00437P,,Gg. Damai Lingkar Timur,,-6.194933,106.94389,1,,0,2,,
B00438P,,Gg. Delima III,,-6.295721,106.90362,1,,0,2,,
B00439P,,Gg. Elang II Kebantenan,,-6.111453,106.92886,1,,0,2,,
B00440P,,Gg. Elang V Kebantenan,,-6.111645,106.92882,1,,0,2,,
B00441P,,Gg. Ferry Cibubur,,-6.348305,106.87656,1,,0,2,,
B00442P,,Gg. Film Jagakarsa,,-6.322356,106.81118,1,,0,2,,
B00444P,,Gg. Gading II Pisangan Timur,,-6.205063,106.88175,1,,0,2,,
B00445P,,Gg. Giat Raya Ciracas,,-6.330162,106.86968,1,,0,2,,
B00446P,,Gg. Gotong Royong,,-6.124932,106.89376,1,,0,2,,
B00447P,,Gg. H Daimin Hs Meruya Selatan,,-6.199156,106.74177,1,,0,2,,
B00448P,,Gg. H Kebantenan III,,-6.108365,106.93331,1,,0,2,,
B00449P,,Gg. H Piran,,-6.297323,106.89335,1,,0,2,,
B00450P,,Gg. H Satiri Manshur,,-6.173907,106.7485,1,,0,2,,
B00452P,,Gg. H. Abdul Rohim Marunda,,-6.120614,106.957,1,,0,2,,
B00453P,,Gg. H. Abdul Rohman,,-6.224423,106.90061,1,,0,2,,
B00455P,,Gg. H. Abdullah Marunda,,-6.125838,106.95684,1,,0,2,,
B00390P,,Gambir 3,,-6.178796,106.83095,1,,0,2,,
B00454P,,Gg. H. Abdul Wahab,,-6.254501,106.82622,1,,0,2,,
B00456P,,Gg. H. Ahmad Nado,,-6.304413,106.80243,1,,0,2,,
B00457P,,Gg. H. Amsar,,-6.218711,106.77095,1,,0,2,,
B00458P,,Gg. H. Anim Semanan,,-6.168368,106.70594,1,,0,2,,
B00459P,,Gg. H. Ayub,,-6.270874,106.79762,1,,0,2,,
B00460P,,Gg. H. Bakri,,-6.129891,106.90348,1,,0,2,,
B00461P,,Gg. H. Bunen 1,,-6.232949,106.88516,1,,0,2,,
B00462P,,Gg. H. Bunen 2,,-6.232848,106.88526,1,,0,2,,
B00463P,,Gg. H. Dahlan,,-6.293827,106.90412,1,,0,2,,
B00464P,,Gg. H. Denas,,-6.127115,106.90597,1,,0,2,,
B00465P,,Gg. H. Doel Bojong Raya,,-6.167321,106.73423,1,,0,2,,
B00466P,,Gg. H. Emur Pondok Labu,,-6.301858,106.79614,1,,0,2,,
B00467P,,Gg. H. Ganan,,-6.335534,106.81909,1,,0,2,,
B00468P,,Gg. H. Gose Raya Cilangkap,,-6.338181,106.89885,1,,0,2,,
B00469P,,Gg. H. Jaid Petukangan,,-6.246071,106.75194,1,,0,2,,
B00470P,,Gg. H. Kamil,,-6.185002,106.95902,1,,0,2,,
B00471P,,Gg. H. Loong Tengah,,-6.286959,106.86299,1,,0,2,,
B00472P,,Gg. H. Mesir,,-6.337868,106.81624,1,,0,2,,
B00473P,,Gg. H. Mujeni Cililitan,,-6.263903,106.86228,1,,0,2,,
B00474P,,Gg. H. Naim Kembangan Utara,,-6.182271,106.73464,1,,0,2,,
B00475P,,Gg. H. Rosanih Baru,,-6.325861,106.85016,1,,0,2,,
B00476P,,Gg. H. Saibun Jati Padang,,-6.289383,106.82903,1,,0,2,,
B00478P,,Gg. H. Salihan Jati Padang,,-6.296404,106.82833,1,,0,2,,
B00479P,,Gg. H. Sanusi I Ulujami,,-6.241758,106.76298,1,,0,2,,
B00480P,,Gg. H. Seman Susukan,,-6.327213,106.86898,1,,0,2,,
B00481P,,Gg. H. Solihin 1 Tebet,,-6.22337,106.84837,1,,0,2,,
B00482P,,Gg. H. Syarip Sawah Mede,,-6.099468,106.70596,1,,0,2,,
B00483P,,Gg. H. Untung Rawa Buaya,,-6.163734,106.73352,1,,0,2,,
B00484P,,Gg. H. Yahya Balekambang,,-6.287078,106.85064,1,,0,2,,
B00485P,,Gg. H. Yusuf Jati Pdang,,-6.292902,106.8287,1,,0,2,,
B00486P,,Gg. Harapan I Jagakarsa,,-6.313476,106.81269,1,,0,2,,
B00487P,,Gg. Iman Utara Cibubur,,-6.358625,106.88184,1,,0,2,,
B00488P,,Gg. Industri IX Gunung Sahari,,-6.144826,106.83425,1,,0,2,,
B00489P,,Gg. Intip Petukangan,,-6.228409,106.75242,1,,0,2,,
B00490P,,Gg. Jambu,,-6.295578,106.89744,1,,0,2,,
B00491P,,Gg. Kancil I Lenteng Agung,,-6.316507,106.83774,1,,0,2,,
B00492P,,Gg. Kancil Marunda,,-6.106711,106.96479,1,,0,2,,
B00493P,,Gg. Kebembem 3,,-6.208366,106.88486,1,,0,2,,
B00494P,,Gg. Kelor,,-6.211791,106.86043,1,,0,2,,
B00495P,,Gg. Kelor 2,,-6.211486,106.86066,1,,0,2,,
B00496P,,Gg. Kembang II Pagelarang,,-6.304986,106.91681,1,,0,2,,
B00497P,,Gg. Kerang Raya Dadap,,-6.09588,106.71551,1,,0,2,,
B00498P,,Gg. Koperasi Ciracas,,-6.327325,106.86902,1,,0,2,,
B00499P,,Gg. Kunir II,,-6.133132,106.81435,1,,0,2,,
B00500P,,Gg. Kurung KDW,,-6.330806,106.88214,1,,0,2,,
B00501P,,Gg. L Utan Panjang Timur,,-6.166888,106.85256,1,,0,2,,
B00502P,,Gg. Langga,,-6.26626,106.88132,1,,0,2,,
B00503P,,Gg. Langgar II,,-6.255477,106.79037,1,,0,2,,
B00504P,,Gg. Langgar Kelapa Dua,,-6.213042,106.76941,1,,0,2,,
B00505P,,Gg. Lele Sunter Kemayoran,,-6.158253,106.86842,1,,0,2,,
B00506P,,Gg. Lestari Cibubur,,-6.347515,106.87465,1,,0,2,,
B00507P,,Gg. Makmur II,,-6.293741,106.90056,1,,0,2,,
B00508P,,Gg. Makmur IV,,-6.295125,106.90023,1,,0,2,,
B00509P,,Gg. Manggis VIII Manggarai Selatan,,-6.220354,106.84767,1,,0,2,,
B00510P,,Gg. Manggis XIV Tj. Duren,,-6.178683,106.78371,1,,0,2,,
B00511P,,Gg. Mantap Cibubur,,-6.364269,106.88611,1,,0,2,,
B00512P,,Gg. Marang,,-6.217246,106.74855,1,,0,2,,
B00513P,,Gg. Masjid Al Istiqomah Tengah,,-6.292614,106.86477,1,,0,2,,
B00514P,,Gg. Masjid Al Khaerot Condet,,-6.278232,106.85501,1,,0,2,,
B00515P,,Gg. Mawar,,-6.267096,106.88251,1,,0,2,,
B00516P,,Gg. Mawar Kb. Jeruk,,-6.197361,106.7672,1,,0,2,,
B00517P,,Gg. Molen,,-6.30713,106.87629,1,,0,2,,
B00518P,,Gg. Muhi Pulo Gebang,,-6.210145,106.95833,1,,0,2,,
B00519P,,Gg. Mulia Manggarai Selatan,,-6.220622,106.84887,1,,0,2,,
B00520P,,Gg. Mundu II Tengah,,-6.293006,106.86333,1,,0,2,,
B00521P,,Gg. Musholla Karang Tengah I,,-6.310623,106.78289,1,,0,2,,
B00522P,,Gg. Musholla Ragunan,,-6.308196,106.81588,1,,0,2,,
B00523P,,Gg. Nasim Badeh Susukan,,-6.312485,106.87029,1,,0,2,,
B00524P,,Gg. Nusa Indah Ciracas,,-6.326137,106.86874,1,,0,2,,
B00525P,,Gg. Oxport Kebantenan VII,,-6.110279,106.92941,1,,0,2,,
B00526P,,Gg. P Pertamina Marunda,,-6.120683,106.95709,1,,0,2,,
B00527P,,Gg. Padi Pelita Cipinang,,-6.211832,106.8877,1,,0,2,,
B00529P,,Gg. Pelangi Damai Raya,,-6.248529,106.75345,1,,0,2,,
B00530P,,Gg. Perjuangan Petukangan,,-6.23389,106.75156,1,,0,2,,
B00531P,,Gg. Petamburan I KS Tubun,,-6.190162,106.80656,1,,0,2,,
B00532P,,Gg. Poncol Malaka III,,-6.14769,106.95627,1,,0,2,,
B00533P,,Gg. Pos 5,,-6.122442,106.92691,1,,0,2,,
B00534P,,Gg. Pos Ayam,,-6.120971,106.92694,1,,0,2,,
B00535P,,Gg. Pos Komodor Halim,,-6.265611,106.88321,1,,0,2,,
B00536P,,Gg. Puskesmas Kebagusan Raya,,-6.296645,106.8273,1,,0,2,,
B00537P,,Gg. Ramli KS Tubun,,-6.191888,106.80594,1,,0,2,,
B00538P,,Gg. Randu,,-6.221883,106.89946,1,,0,2,,
B00539P,,Gg. Reformasi Damai Raya,,-6.259917,106.80327,1,,0,2,,
B00540P,,Gg. Remaja Rawa Kuning,,-6.19841,106.96164,1,,0,2,,
B00543P,,Gg. Rorotan 8,,-6.16276,106.9618,1,,0,2,,
B00544P,,Gg. Rukun Lingkar Timur,,-6.198644,106.94442,1,,0,2,,
B00545P,,Gg. Rw Ulujami Raya,,-6.249665,106.7637,1,,0,2,,
B00546P,,Gg. Sabar 2 Lingkar Timur,,-6.199915,106.94488,1,,0,2,,
B00547P,,Gg. Sabar Lingkar Timur,,-6.199577,106.94473,1,,0,2,,
B00548P,,Gg. Sadar IV,,-6.292873,106.90228,1,,0,2,,
B00549P,,Gg. Sadar Vb,,-6.292697,106.9014,1,,0,2,,
B00550P,,Gg. Sahabat Pulo Gebang,,-6.212271,106.95588,1,,0,2,,
B00551P,,Gg. Saminten,,-6.379436,106.84923,1,,0,2,,
B00552P,,Gg. Samudera Casa Goya,,-6.198942,106.77778,1,,0,2,,
B00553P,,Gg. Sapi,,-6.304642,106.91132,1,,0,2,,
B00554P,,Gg. Sawo 1,,-6.20176,106.93513,1,,0,2,,
B00555P,,Gg. Sawo 2,,-6.201669,106.93518,1,,0,2,,
B00556P,,Gg. Sawo Joglo,,-6.217751,106.75034,1,,0,2,,
B00557P,,Gg. Sawo Rawabinong,,-6.304571,106.91141,1,,0,2,,
B00558P,,Gg. Sejahtera Lingkar Timur,,-6.200604,106.94519,1,,0,2,,
B00559P,,Gg. Seruni V Cipinang Lontar,,-6.215978,106.88992,1,,0,2,,
B00560P,,Gg. Service,,-6.297451,106.90346,1,,0,2,,
B00561P,,Gg. Siluman Cililitan Besar,,-6.264959,106.8747,1,,0,2,,
B00562P,,Gg. Subuh,,-6.211257,106.89058,1,,0,2,,
B00563P,,Gg. Suka Damai,,-6.295718,106.89906,1,,0,2,,
B00564P,,Gg. Suzuki,,-6.184571,106.90797,1,,0,2,,
B00565P,,Gg. Swadaya II Cibubur,,-6.361451,106.88461,1,,0,2,,
B00566P,,Gg. Swadaya Pagelarang,,-6.302646,106.91686,1,,0,2,,
B00567P,,Gg. T Palmerah,,-6.20445,106.783,1,,0,2,,
B00568P,,Gg. Tamansari Ragunan,,-6.305488,106.81614,1,,0,2,,
B00569P,,Gg. Tampak Siring Cipete Dalam,,-6.274609,106.80055,1,,0,2,,
B00570P,,Gg. Timbul Jaya Daan Mogot,,-6.153096,106.72239,1,,0,2,,
B00571P,,Gg. Tongolo,,-6.267049,106.88252,1,,0,2,,
B00572P,,Gg. Tresna Asih Cililitan,,-6.263788,106.86849,1,,0,2,,
B00573P,,Gg. Trijaya IV Tebet Timur,,-6.232163,106.8528,1,,0,2,,
B00574P,,Gg. U Palmerah,,-6.202682,106.78279,1,,0,2,,
B00575P,,Gg. Umbang Lingkar Timur,,-6.189303,106.94454,1,,0,2,,
B00576P,,Gg. Usaha Ciracas,,-6.319908,106.8726,1,,0,2,,
B00577P,,Gg. Wali Pertama Cijantung,,-6.326462,106.85743,1,,0,2,,
B00578P,,Gg. Waru,,-6.305813,106.91201,1,,0,2,,
B00579P,,Gardu PLN Gotong Royong,,-6.225352,106.89697,1,,0,2,,
B00580P,,Garuda Indonesia Pusat,,-6.183069,106.82591,1,,0,2,,
B00581P,,Garuda Indonesia Training Center,,-6.175417,106.72178,1,,0,2,,
B00582P,,Garuda Taman Mini 1,,-6.290384,106.88174,1,,0,2,,
B00583P,,Garuda Taman Mini 2,,-6.290148,106.88162,1,,0,2,,
B00584P,,Gas Alam,,-6.382128,106.86633,1,,0,2,,
B00586P,,Gatot Subroto LIPI 1,,-6.226962,106.81723,1,,0,2,,
B00587P,,Gatot Subroto LIPI 2,,-6.226792,106.81771,1,,0,2,,
B00588P,,GBI Sungai Yordan,,-6.166828,106.7698,1,,0,2,,
B00591P,,Gebu Minang,,-6.225359,106.85576,1,,0,2,,
B00592P,,Gedong Panjang 2,,-6.132546,106.80606,1,,0,2,,
B00594P,,Gedung ATC,,-6.18872,106.80832,1,,0,2,,
B00596P,,Gedung Granadi,,-6.231311,106.83301,1,,0,2,,
B00597P,,Gedung Judo Kelapa Gading,,-6.162982,106.90728,1,,0,2,,
B00598P,,Gedung OT,,-6.166688,106.72772,1,,0,2,,
B00599P,,Gedung Pertamina,,-6.230483,106.78971,1,,0,2,,
B00600P,,Gedung Pompa Cideng Siantar,,-6.173284,106.80669,1,,0,2,,
B00601P,,Gedung Pompa Pinang,,-6.112304,106.90272,1,,0,2,,
B00602P,,Gedung Pramuka,,-6.111364,106.92566,1,,0,2,,
B00603P,,Gedung Senam,,-6.224141,106.92339,1,,0,2,,
B00604P,,Gedung Wanita,,-6.200921,106.83624,1,,0,2,,
B00605P,,Gelael,,-6.242811,106.8475,1,,0,2,,
B00606P,,Gelanggang Remaja Ciracas,,-6.33946,106.88226,1,,0,2,,
B00607P,,Gelanggang Remaja Grogol Petamburan,,-6.178373,106.78094,1,,0,2,,
B00608P,,Gelanggang Remaja Pasar Minggu,,-6.284615,106.83787,1,,0,2,,
B00609P,,Gelanggang Remaja Tj. Priok,,-6.13877,106.87193,1,,0,2,,
B00610P,,Gelanggang TB Simatupang,,-6.289097,106.77909,1,,0,2,,
B00612P,,Gelora Bung Karno 2,,-6.224126,106.80558,1,,0,2,,
B00613P,,Gempol,,-6.30729,106.89415,1,,0,2,,
B00614P,,Gempol Baru 1,,-6.186429,106.95439,1,,0,2,,
B00615P,,Gempol Baru 2,,-6.186351,106.9547,1,,0,2,,
B00616P,,Gerbang Tol Bambu Apus 2,,-6.308108,106.89647,1,,0,2,,
B00617P,,Gerbang Tol Joglo 1,,-6.218914,106.74426,1,,0,2,,
B00618P,,Gerbang Tol Joglo 2,,-6.218702,106.74425,1,,0,2,,
B00619P,,Gerbang Tol Kb. Jeruk,,-6.190592,106.76752,1,,0,2,,
B00620P,,Gerbang Tol Meruya Selatan 1,,-6.20619,106.73882,1,,0,2,,
B00621P,,Gerbang Tol Meruya Selatan 2,,-6.20623,106.73836,1,,0,2,,
B00622P,,Gerbang Tol Pondok Gede,,-6.258346,106.91008,1,,0,2,,
B00623P,,Gerbang Tol Tj. Duren,,-6.173231,106.79049,1,,0,2,,
B00624P,,Gerbang Tol Veteran,,-6.261369,106.76721,1,,0,2,,
B00611P,,Gelora Bung Karno 1,,-6.224642,106.8056,1,,0,2,,
B00625P,,Gereja Filipi,,-6.104601,106.93692,1,,0,2,,
B00626P,,Gereja HKBP Cilangkap,,-6.334412,106.89744,1,,0,2,,
B00627P,,Gereja HKBP Cipete,,-6.272186,106.80086,1,,0,2,,
B00628P,,Gereja HKBP Duren Sawit,,-6.223308,106.91369,1,,0,2,,
B00630P,,Gereja Jemaat Kiwi,,-6.339041,106.87215,1,,0,2,,
B00631P,,Gereja Katholik Salib Suci,,-6.125765,106.91976,1,,0,2,,
B00632P,,Gereja Oikumene,,-6.262445,106.88707,1,,0,2,,
B00633P,,Gereja Ora Et Labora,,-6.110257,106.92607,1,,0,2,,
B00634P,,Gereja Protestan Tugu,,-6.123642,106.92353,1,,0,2,,
B00635P,,Gereja Reformed Injili Indonesia,,-6.153049,106.8443,1,,0,2,,
B00636P,,Gereja Santa Anna 1,,-6.233953,106.90998,1,,0,2,,
B00637P,,Gereja Santa Anna 2,,-6.234003,106.91014,1,,0,2,,
B00638P,,Gereja Santa Maria Imakulata,,-6.127632,106.70459,1,,0,2,,
B00639P,,Gereja Santapan Rohani,,-6.241739,106.813463,1,,0,2,,
B00640P,,Gereja Santo Bonaventura,,-6.176577,106.88659,1,,0,2,,
B00641P,,Gereja Sumber Kasih,,-6.30282,106.78628,1,,0,2,,
B00642P,,Gereja Tiberias Kelapa Gading,,-6.151141,106.90404,1,,0,2,,
B00643P,,Giant Ekspres Pondok Kopi,,-6.226153,106.94363,1,,0,2,,
B00645P,,Giant Pondok Gede 1,,-6.278286,106.91327,1,,0,2,,
B00646P,,Giant Pondok Gede 2,,-6.277896,106.91309,1,,0,2,,
B00647P,,Giant Rawamangun,,-6.199861,106.89034,1,,0,2,,
B00648P,,GKJ Tj. Priok,,-6.105058,106.93214,1,,0,2,,
B00649P,,Global SeVilla Pulo Mas,,-6.183941,106.88694,1,,0,2,,
B00651P,,Goethe Institute,,-6.189522,106.83138,1,,0,2,,
B00652P,,Gojek Kemang Timur,,-6.272963,106.82142,1,,0,2,,
B00654P,,Golden Fatmawati,,-6.276685,106.79761,1,,0,2,,
B00655P,,Golf Bandar Kemayoran,,-6.143748,106.85374,1,,0,2,,
B00656P,,Gongseng,,-6.326712,106.86376,1,,0,2,,
B00657P,,GOR Cipayung 1,,-6.308072,106.91922,1,,0,2,,
B00658P,,GOR Cipayung 2,,-6.30798,106.91932,1,,0,2,,
B00659P,,GOR Ciracas,,-6.325147,106.86413,1,,0,2,,
B00660P,,GOR Handayani Kemanggisan,,-6.187211,106.79,1,,0,2,,
B00661P,,GOR Pondok Bambu,,-6.223465,106.904,1,,0,2,,
B00662P,,GOR Popki Cibubur,,-6.3675,106.88923,1,,0,2,,
B00663P,,GOR Sumantri 1,,-6.220899,106.83225,1,,0,2,,
B00664P,,GOR Sumantri 2,,-6.221038,106.83189,1,,0,2,,
B00665P,,GP Mall 1,,-6.259636,107.01988,1,,0,2,,
B00666P,,GP Mall 2,,-6.259474,107.01987,1,,0,2,,
B00667P,,GPIB Bukit Moria,,-6.241727,106.84454,1,,0,2,,
B00668P,,Gracious,,-6.153865,106.80789,1,,0,2,,
B00670P,,Graha Delta Tengah,,-6.293105,106.85972,1,,0,2,,
B00671P,,Graha Dirgantara,,-6.255702,106.88296,1,,0,2,,
B00672P,,Graha Kayu Manis,,-6.288287,106.85201,1,,0,2,,
B00673P,,Graha Kemenpora,,-6.214153,106.79891,1,,0,2,,
B00674P,,Graha Kirana,,-6.150359,106.88755,1,,0,2,,
B00675P,,Graha Mandiri,,-6.197443,106.82533,1,,0,2,,
B00676P,,Graha Morris,,-6.15147,106.89798,1,,0,2,,
B00679P,,Graha Pejaten,,-6.277337,106.84187,1,,0,2,,
B00682P,,Graha Sindu Bpk Penabur,,-6.159971,106.83509,1,,0,2,,
B00684P,,Graha Werdatama Pondok Labu,,-6.309163,106.79461,1,,0,2,,
B00685P,,Gramedia Harapan Indah,,-6.17631,106.97427,1,,0,2,,
B00686P,,Grand Boutique Centre,,-6.13531,106.82948,1,,0,2,,
B00687P,,Grand Cempaka Hotel,,-6.173334,106.86075,1,,0,2,,
B00688P,,Grand Centro Bintaro,,-6.258839,106.75968,1,,0,2,,
B00689P,,Grand Dhika City,,-6.261877,107.01858,1,,0,2,,
B00692P,,Grand Palm,,-6.178166,106.71541,1,,0,2,,
B00693P,,Grand Pasar Minggu,,-6.290648,106.84236,1,,0,2,,
B00694P,,Grand Sahid,,-6.210975,106.82059,1,,0,2,,
B00695P,,Grand Wijaya Dharmawangsa,,-6.254752,106.80034,1,,0,2,,
B00696P,,Green Central City,,-6.147134,106.81591,1,,0,2,,
B00697P,,Green Lake City,,-6.177644,106.71198,1,,0,2,,
B00698P,,Green Permata,,-6.229061,106.76065,1,,0,2,,
B00699P,,Green Puri,,-6.174128,106.70684,1,,0,2,,
B00700P,,Green Terrace,,-6.303484,106.88539,1,,0,2,,
B00701P,,Green Terrace 2,,-6.30478,106.88724,1,,0,2,,
B00702P,,Greenlife Ciracas,,-6.327194,106.88265,1,,0,2,,
B00703P,,Grha Intirub,,-6.265216,106.87599,1,,0,2,,
B00704P,,Grha Intirub 2,,-6.265491,106.87672,1,,0,2,,
B00705P,,Grha Muncul Mekar,,-6.209652,106.77093,1,,0,2,,
B00706P,,Grha Sera,,-6.14965,106.88503,1,,0,2,,
B00707P,,Grii Kelapa Gading,,-6.145063,106.90953,1,,0,2,,
B00708P,,Griya Ardhya Garini 1,,-6.259502,106.88953,1,,0,2,,
B00709P,,Griya Ardhya Garini 2,,-6.259544,106.88942,1,,0,2,,
B00710P,,Griya Galaxy 126,,-6.283553,106.86431,1,,0,2,,
B00712P,,Griya Harapan Permai,,-6.183297,106.98167,1,,0,2,,
B00713P,,Griya Kukila Halim Perdanakusuma,,-6.28456,106.90678,1,,0,2,,
B00714P,,Griya Sujud Kayu Manis,,-6.288991,106.85353,1,,0,2,,
B00715P,,Groserindo,,-6.249011,107.01686,1,,0,2,,
B00716P,,Guardian Apotek,,-6.176403,106.87262,1,,0,2,,
B00717P,,Gubah Al Haddad,,-6.107712,106.89961,1,,0,2,,
B00718P,,Gunawarman 1,,-6.237947,106.80724,1,,0,2,,
B00683P,,Graha Sucofindo,,-6.251886,106.84248,1,,0,2,,
B00719P,,Gunawarman 2,,-6.234276,106.80756,1,,0,2,,
B00721P,,Gunung Sahari Mangga Dua Barat,,-6.137083,106.83229,1,,0,2,,
B00722P,,Gunung Sahari Mangga Dua Timur,,-6.137032,106.83254,1,,0,2,,
B00723P,,H Soleh I Sukabumi Selatan,,-6.219658,106.77847,1,,0,2,,
B00724P,,H. Agus Salim 1,,-6.186454,106.82504,1,,0,2,,
B00725P,,H. Agus Salim 2,,-6.184459,106.8248,1,,0,2,,
B00726P,,H. Alwi,,-6.309595,106.8389,1,,0,2,,
B00727P,,H. Moh Nail,,-6.379503,106.85084,1,,0,2,,
B00728P,,H. Naman Noer Ali,,-6.248932,106.94208,1,,0,2,,
B00729P,,H. Nawi Jln. Madrasah,,-6.268026,106.79712,1,,0,2,,
B00730P,,H. Nawi Jln. Timbul,,-6.268439,106.79744,1,,0,2,,
B00732P,,Halim PK,,-6.241981,106.87792,1,,0,2,,
B00733P,,Halimun 1,,-6.205233,106.8335,1,,0,2,,
B00762P,,Harapan Indah Boulevard,,-6.186073,106.97502,1,,0,2,,
B00763P,,Harco Mangga Dua,,-6.135648,106.82957,1,,0,2,,
B00764P,,Haris Hotel Kelapa Gading,,-6.157718,106.91053,1,,0,2,,
B00767P,,Hero Basuki Rahmat,,-6.22764,106.88296,1,,0,2,,
B00768P,,HKBP Petukangan,,-6.236688,106.75099,1,,0,2,,
B00769P,,HKBP Rawamangun,,-6.196463,106.88597,1,,0,2,,
B00770P,,Honda Letjen Suprapto,,-6.174933,106.84973,1,,0,2,,
B00772P,,Hotel Ambhara Blok M,,-6.243499,106.80318,1,,0,2,,
B00774P,,Hotel Borobudur 2,,-6.159653,106.83912,1,,0,2,,
B00775P,,Hotel Kalisma KS Tubun,,-6.188855,106.80824,1,,0,2,,
B00777P,,Hotel Mega Anggrek,,-6.184825,106.78994,1,,0,2,,
B00778P,,Hotel Melawai,,-6.245857,106.79979,1,,0,2,,
B00779P,,Hotel Millenium Kb. Sirih,,-6.182679,106.81639,1,,0,2,,
B00780P,,Hotel Mulia,,-6.213782,106.79602,1,,0,2,,
B00781P,,Hotel Olive 1,,-6.217195,106.61882,1,,0,2,,
B00782P,,Hotel Olive 2,,-6.216591,106.61888,1,,0,2,,
B00784P,,Hutan Kota Srengseng,,-6.208678,106.76361,1,,0,2,,
B00785P,,IBI-K 57,,-6.334036,106.833,1,,0,2,,
B00786P,,Ibik 57,,-6.333957,106.833,1,,0,2,,
B00787P,,Icon Residence,,-6.201827,106.78268,1,,0,2,,
B00788P,,IGI,,-6.182981,106.91917,1,,0,2,,
B00791P,,Imigrasi Jaktim 1,,-6.214787,106.88182,1,,0,2,,
B00792P,,Imigrasi Jaktim 2,,-6.214552,106.8818,1,,0,2,,
B00793P,,Imigrasi Kelas 1 Jakut,,-6.145052,106.89379,1,,0,2,,
B00794P,,Imigrasi Kelas I Jaksel,,-6.273244,106.77478,1,,0,2,,
B00795P,,Imperium,,-6.210363,106.83059,1,,0,2,,
B00796P,,Indosiar 1,,-6.163383,106.7755,1,,0,2,,
B00797P,,Indosiar 2,,-6.163521,106.77527,1,,0,2,,
B00798P,,Industri SPBU Shell,,-6.146556,106.83541,1,,0,2,,
B00799P,,Infinia Park,,-6.212589,106.84562,1,,0,2,,
B00801P,,Institut Teknologi Budi Utomo,,-6.221618,106.93914,1,,0,2,,
B00802P,,Institut Teknologi Budi Utomo 1,,-6.221862,106.93932,1,,0,2,,
B00803P,,Institut Teknologi Budi Utomo 2,,-6.221926,106.93933,1,,0,2,,
B00804P,,Intakindo,,-6.208861,106.81018,1,,0,2,,
B00805P,,Ir H Djuanda,,-6.381864,106.86551,1,,0,2,,
B00807P,,Iskandar Muda,,-6.2443,106.78249,1,,0,2,,
B00808P,,Islamic,,-6.228521,106.61473,1,,0,2,,
B00809P,,Islamic Centre Wasilah Subuh,,-6.33663,106.89768,1,,0,2,,
B00810P,,Istiqlal 1,,-6.172371,106.83071,1,,0,2,,
B00813P,,ITC Cipulir,,-6.237701,106.76515,1,,0,2,,
B00814P,,ITC Fatmawati,,-6.26352,106.79716,1,,0,2,,
B00815P,,ITC Mangga Dua,,-6.136085,106.82549,1,,0,2,,
B00816P,,ITC Roxy,,-6.16737,106.80248,1,,0,2,,
B00817P,,ITC Serpong 1,,-6.286016,106.66493,1,,0,2,,
B00818P,,ITC Serpong 2,,-6.286624,106.66563,1,,0,2,,
B00821P,,Jagakarsa St. Lenteng Agung,,-6.332399,106.83506,1,,0,2,,
B00822P,,Jagal 1,,-6.190849,106.93465,1,,0,2,,
B00823P,,Jagal 2,,-6.190792,106.93472,1,,0,2,,
B00824P,,Jaha,,-6.292428,106.81245,1,,0,2,,
B00826P,,Jakarta International Velodrome,,-6.193313,106.89,1,,0,2,,
B00828P,,Jakarta Islamic Centre 1,,-6.119721,106.91704,1,,0,2,,
B00829P,,Jakarta Islamic Centre 2,,-6.122114,106.91694,1,,0,2,,
B00830P,,Jakarta Islamic Hospital,,-6.299909,106.86966,1,,0,2,,
B00831P,,Jakarta Taipei School,,-6.146149,106.90586,1,,0,2,,
B00832P,,Jln. AA Sukabumi Selatan,,-6.222492,106.77165,1,,0,2,,
B00833P,,Jln. Abdulrahman Cibubur,,-6.363666,106.88413,1,,0,2,,
B00834P,,Jln. Acin Gaton,,-6.329381,106.8825,1,,0,2,,
B00835P,,Jln. Adam Malik,,-6.237023,106.74712,1,,0,2,,
B00836P,,Jln. Adam Sukabumi Utara,,-6.208434,106.78322,1,,0,2,,
B00838P,,Jln. Adiaksa II,,-6.291913,106.78024,1,,0,2,,
B00839P,,Jln. Adil,,-6.297278,106.90291,1,,0,2,,
B00840P,,Jln. Adil 2,,-6.29588,106.90347,1,,0,2,,
B00841P,,Jln. Al Baidho 1,,-6.293763,106.9046,1,,0,2,,
B00842P,,Jln. Al Falah Duri Kosambi,,-6.178709,106.71726,1,,0,2,,
B00843P,,Jln. Al Hidayah Balekambang,,-6.288369,106.85204,1,,0,2,,
B00731P,,H. Samali,,-6.265888,106.84407,1,,0,2,,
B00844P,,Jln. Al Hidayah Basmol,,-6.163241,106.75058,1,,0,2,,
B00845P,,Jln. Al Islamiyah Grogol Selatan,,-6.225526,106.7765,1,,0,2,,
B00846P,,Jln. Al Marbuk II Balekambang,,-6.286247,106.85047,1,,0,2,,
B00848P,,Jln. Albarkah I Cilandak,,-6.285505,106.79964,1,,0,2,,
B00849P,,Jln. Albarkah II Cilandak,,-6.287157,106.80173,1,,0,2,,
B00850P,,Jln. Alhidayah III,,-6.298639,106.9064,1,,0,2,,
B00851P,,Jln. AMD Manunggal V,,-6.230374,106.75207,1,,0,2,,
B00852P,,Jln. Ampel,,-6.296916,106.89196,1,,0,2,,
B00853P,,Jln. Ampera VI Gunung Sahari,,-6.135162,106.83211,1,,0,2,,
B00854P,,Jln. Anggrek Jagakarsa,,-6.335708,106.81898,1,,0,2,,
B00855P,,Jln. Anggrek Petukangan,,-6.231319,106.75204,1,,0,2,,
B00856P,,Jln. Anggrek Srengseng,,-6.19818,106.75616,1,,0,2,,
B00857P,,Jln. Anggur KDW,,-6.334146,106.88073,1,,0,2,,
B00860P,,Jln. Angkasa 1,,-6.1508,106.84111,1,,0,2,,
B00861P,,Jln. Angkasa Bundaran Kemayoran,,-6.156032,106.85067,1,,0,2,,
B00862P,,Jln. Angsana Kemanggisan,,-6.194934,106.78208,1,,0,2,,
B00864P,,Jln. Anugrah Raya,,-6.258951,106.91029,1,,0,2,,
B00865P,,Jln. Ar Ridho,,-6.308148,106.86935,1,,0,2,,
B00866P,,Jln. Arus Jati,,-6.208011,106.90193,1,,0,2,,
B00867P,,Jln. As Syafiiyah Raya Cilangkap,,-6.338197,106.89899,1,,0,2,,
B00868P,,Jln. Aselih,,-6.347277,106.79695,1,,0,2,,
B00869P,,Jln. Aselih Cipedak,,-6.352111,106.80147,1,,0,2,,
B00870P,,Jln. Asem Cijantung,,-6.326133,106.86322,1,,0,2,,
B00873P,,Jln. Asem Pengantin Ali,,-6.324709,106.88366,1,,0,2,,
B00874P,,Jln. Asia Baru I,,-6.169601,106.77103,1,,0,2,,
B00875P,,Jln. Asmin 2,,-6.308725,106.87205,1,,0,2,,
B00876P,,Jln. Asshofa Raya,,-6.213287,106.78166,1,,0,2,,
B00877P,,Jln. Assirot 2 Grogol Selatan,,-6.225565,106.7767,1,,0,2,,
B00878P,,Jln. Assirot Dalam Grogol Selatan,,-6.225649,106.77478,1,,0,2,,
B00879P,,Jln. B Basmol Raya,,-6.161701,106.75176,1,,0,2,,
B00880P,,Jln. B Karang Anyar,,-6.155646,106.82754,1,,0,2,,
B00881P,,Jln. Bacang Lubang Buaya,,-6.288935,106.89713,1,,0,2,,
B00882P,,Jln. Bak Air 1,,-6.115015,106.87245,1,,0,2,,
B00883P,,Jln. Bakti,,-6.249166,107.01577,1,,0,2,,
B00884P,,Jln. Bakti Cililitan Besar,,-6.265522,106.87663,1,,0,2,,
B00885P,,Jln. Bakti II Baru,,-6.329252,106.85226,1,,0,2,,
B00887P,,Jln. Balap Sepeda IV,,-6.189168,106.89107,1,,0,2,,
B00888P,,Jln. Bambu Hubuny,,-6.308983,106.89799,1,,0,2,,
B00889P,,Jln. Bambu I Srengseng,,-6.2067,106.75853,1,,0,2,,
B00890P,,Jln. Bambu II Srengseng,,-6.211011,106.75922,1,,0,2,,
B00891P,,Jln. Bambu Kuning,,-6.309556,106.89894,1,,0,2,,
B00892P,,Jln. Bambu Ori I,,-6.239082,106.9079,1,,0,2,,
B00893P,,Jln. Bambu Ori Raya,,-6.239118,106.90768,1,,0,2,,
B00894P,,Jln. Bandengan Utara 1,,-6.13609,106.80391,1,,0,2,,
B00895P,,Jln. Bangka I,,-6.240656,106.82043,1,,0,2,,
B00897P,,Jln. Banjarsari II,,-6.291119,106.79511,1,,0,2,,
B00898P,,Jln. Barkah III Manggarai Selatan,,-6.220809,106.85067,1,,0,2,,
B00899P,,Jln. Baros,,-6.311046,106.784,1,,0,2,,
B00900P,,Jln. Baru 1,,-6.196981,106.62583,1,,0,2,,
B00901P,,Jln. Baru Tanah Merdeka,,-6.307818,106.87362,1,,0,2,,
B00902P,,Jln. Basuki Raya Cilangkap,,-6.34166,106.90546,1,,0,2,,
B00903P,,Jln. Batang Hari Cideng Barat,,-6.173482,106.81125,1,,0,2,,
B00906P,,Jln. Batas II Baru,,-6.329867,106.85238,1,,0,2,,
B00907P,,Jln. Batu 1,,-6.268701,106.846,1,,0,2,,
B00908P,,Jln. Batu Permata V,,-6.279588,106.86244,1,,0,2,,
B00909P,,Jln. Batu Tulis I,,-6.279668,106.86241,1,,0,2,,
B00910P,,Jln. Batu Tulis II,,-6.280482,106.86271,1,,0,2,,
B00911P,,Jln. Batu Tulis III,,-6.281059,106.86308,1,,0,2,,
B00912P,,Jln. Batu Tulis Raya,,-6.162969,106.82658,1,,0,2,,
B00914P,,Jln. Batu Tumbuh,,-6.272596,106.86722,1,,0,2,,
B00915P,,Jln. Bawal Raya Paus,,-6.195784,106.8913,1,,0,2,,
B00916P,,Jln. BB Sukabumi Selatan,,-6.221637,106.77171,1,,0,2,,
B00917P,,Jln. BB Utara,,-6.120279,106.79409,1,,0,2,,
B00918P,,RSUD Kalideres,,-6.145855,106.708636,1,,0,2,,
B00920P,,Jln. Bekasi Timur I Jatinegara,,-6.215457,106.87083,1,,0,2,,
B00921P,,Jln. Bekasi Timur V,,-6.215085,106.87684,1,,0,2,,
B00922P,,Jln. Bekasi Timur VI,,-6.214956,106.87866,1,,0,2,,
B00923P,,Jln. Belanak II Rawamangun,,-6.200972,106.89065,1,,0,2,,
B00924P,,Jln. Belanak III Rawamangun,,-6.202063,106.89159,1,,0,2,,
B00925P,,Jln. Belimbing Terusan,,-6.115462,106.92147,1,,0,2,,
B00928P,,Jln. Bendungan Hilir Gg. II,,-6.21388,106.81353,1,,0,2,,
B00929P,,Jln. Bendungan Hilir Gg. IV,,-6.212824,106.81251,1,,0,2,,
B00930P,,Jln. Bendungan Hilir Gg. V,,-6.214506,106.81469,1,,0,2,,
B00931P,,Jln. Bendungan Jatiluhur IV,,-6.215133,106.81377,1,,0,2,,
B00932P,,Jln. Bendungan Melayu,,-6.129991,106.90354,1,,0,2,,
B00926P,,Jln. Bendi Baru,,-6.253319,106.77658,1,,0,2,,
B00886P,,Jln. Balai Rakyat,,-6.224651,106.8991,1,,0,2,,
B00933P,,Jln. Berlian II Pondok Labu,,-6.298412,106.79927,1,,0,2,,
B00934P,,Jln. Bidara Raya Jati Pulo,,-6.180551,106.80285,1,,0,2,,
B00935P,,Jln. Bima Bojong Raya,,-6.168827,106.73414,1,,0,2,,
B00936P,,Jln. Bima I Cijantung,,-6.326321,106.85853,1,,0,2,,
B00937P,,Jln. Bima Kemanggisan,,-6.185818,106.78728,1,,0,2,,
B00939P,,Jln. Bina Lontar 1,,-6.269343,106.91171,1,,0,2,,
B00941P,,Jln. Bojong Indah Raya,,-6.16196,106.73289,1,,0,2,,
B00942P,,Jln. Bojong Indah Raya Klender,,-6.230617,106.92586,1,,0,2,,
B00943P,,Jln. Bojong Raya,,-6.171085,106.72838,1,,0,2,,
B00944P,,Jln. Bougenvil Indah,,-6.181045,106.98008,1,,0,2,,
B00945P,,Jln. Brigif Ciganjur,,-6.344465,106.80398,1,,0,2,,
B00946P,,Jln. Buah Cijantung,,-6.329411,106.86572,1,,0,2,,
B00947P,,Jln. Buaran III,,-6.22065,106.91916,1,,0,2,,
B00948P,,Jln. Budi Jaya,,-6.126294,106.88473,1,,0,2,,
B00949P,,Jln. Budi Murni Raya Cilangkap,,-6.33352,106.89479,1,,0,2,,
B00950P,,Jln. Bulak Barat V Klender,,-6.217018,106.90373,1,,0,2,,
B00951P,,Jln. Bulak Sari,,-6.263408,106.75665,1,,0,2,,
B00952P,,Jln. Bulak Tengah II Klender,,-6.217183,106.90374,1,,0,2,,
B00954P,,Jln. Bulungan 2,,-6.239771,106.79658,1,,0,2,,
B00955P,,Jln. Bumi Pratama III,,-6.296434,106.87835,1,,0,2,,
B00956P,,Jln. Bumi Raya,,-6.225173,106.91236,1,,0,2,,
B00957P,,Jln. Bumi Sutera Cibubur,,-6.350661,106.87776,1,,0,2,,
B00958P,,Jln. Bunga Cempaka II Cipete,,-6.26868,106.80636,1,,0,2,,
B00959P,,Jln. Bungur,,-6.247708,106.7814,1,,0,2,,
B00960P,,Jln. Bungur Akses Term. 1,,-6.311699,106.885,1,,0,2,,
B00961P,,Jln. Bungur Akses Term. 2,,-6.311895,106.8849,1,,0,2,,
B00962P,,Jln. Bungur Besar VI,,-6.171611,106.84386,1,,0,2,,
B00963P,,Jln. Bungur Besar XVI,,-6.163661,106.84089,1,,0,2,,
B00964P,,Jln. Bungur I Rambutan,,-6.313156,106.88475,1,,0,2,,
B00965P,,Jln. Bungur II Rambutan,,-6.313168,106.8847,1,,0,2,,
B00966P,,Jln. Bungur IV Rambutan,,-6.314442,106.88464,1,,0,2,,
B00967P,,Jln. Bungur VIII Rambutan,,-6.316023,106.88494,1,,0,2,,
B00968P,,Jln. Busika Raya Ciracas,,-6.330017,106.87304,1,,0,2,,
B00971P,,Jln. Cakrawala,,-6.264083,106.88424,1,,0,2,,
B00972P,,Jln. Cakrawijaya II,,-6.232475,106.88748,1,,0,2,,
B00973P,,Jln. Catur Tunggal,,-6.233585,106.88368,1,,0,2,,
B00974P,,Jln. Cek Do Abdul Rahman,,-6.29084,106.86563,1,,0,2,,
B00975P,,Jln. Cempaka Bawah Jati Pulo,,-6.180729,106.80286,1,,0,2,,
B00976P,,Jln. Cempaka Putih Barat II,,-6.174175,106.86034,1,,0,2,,
B00977P,,Jln. Cempaka Putih Barat II B-C,,-6.175286,106.85993,1,,0,2,,
B00978P,,Jln. Cempaka Putih Barat III,,-6.176146,106.86188,1,,0,2,,
B00979P,,Jln. Cempaka Putih Tengah II,,-6.176195,106.86816,1,,0,2,,
B00980P,,Jln. Cempaka Putih Tengah XVI,,-6.176206,106.86558,1,,0,2,,
B00981P,,Jln. Cempaka Putih Tengah XXI,,-6.176259,106.86817,1,,0,2,,
B00982P,,Jln. Cempaka Putih Tengah XXVII,,-6.176274,106.87167,1,,0,2,,
B00983P,,Jln. Cempaka Putih Timur XII,,-6.176707,106.87486,1,,0,2,,
B00984P,,Jln. Cempaka Putih Timur XXIV,,-6.176781,106.87485,1,,0,2,,
B00985P,,Jln. Cempaka Raya,,-6.175557,106.85976,1,,0,2,,
B00986P,,Jln. Cempaka Srengseng Sawah,,-6.34463,106.82821,1,,0,2,,
B00987P,,Jln. Cempedak Pesanggrahan,,-6.259823,106.75676,1,,0,2,,
B00988P,,Jln. Cendana Cibubur,,-6.352173,106.8783,1,,0,2,,
B00990P,,Jln. Cibubur I,,-6.346745,106.87343,1,,0,2,,
B00991P,,Jln. Cibubur II,,-6.347011,106.87369,1,,0,2,,
B00992P,,Jln. Cibubur III,,-6.348146,106.87635,1,,0,2,,
B00993P,,Jln. Cibubur Indah V,,-6.350069,106.88415,1,,0,2,,
B00994P,,Jln. Cibubur IV,,-6.34947,106.87613,1,,0,2,,
B00995P,,Jln. Cibubur IV/Ii,,-6.349071,106.87535,1,,0,2,,
B00996P,,Jln. Cibubur VI,,-6.353511,106.87832,1,,0,2,,
B00997P,,Jln. Cibubur VIII,,-6.358854,106.88213,1,,0,2,,
B00998P,,Jln. Cideng Barat Dalam,,-6.181322,106.8132,1,,0,2,,
B00999P,,Jln. Cideng Timur I,,-6.169801,106.81103,1,,0,2,,
B01000P,,Jln. Cikoko Timur I,,-6.244291,106.85863,1,,0,2,,
B01001P,,Jln. Cilandak V,,-6.287313,106.79558,1,,0,2,,
B01002P,,Jln. Cilincing Bakti,,-6.106467,106.93353,1,,0,2,,
B01003P,,Jln. Cilincing Bakti VI,,-6.106695,106.93901,1,,0,2,,
B01004P,,Jln. Cilincing Baru Raya,,-6.106927,106.92672,1,,0,2,,
B01005P,,Jln. Cipayung Barat I,,-6.330893,106.8881,1,,0,2,,
B01007P,,Jln. Cipinang Bali III,,-6.239272,106.89136,1,,0,2,,
B01008P,,Jln. Cipinang Jagal,,-6.211166,106.89556,1,,0,2,,
B01009P,,Jln. Cipinang Muara III,,-6.220029,106.8995,1,,0,2,,
B01010P,,Jln. Cipinang Tengah,,-6.239989,106.88723,1,,0,2,,
B01011P,,Jln. Cipinang Timur Persahabatan,,-6.202447,106.89344,1,,0,2,,
B01012P,,Jln. Cipulir 1,,-6.237267,106.7754,1,,0,2,,
B01013P,,Jln. Citra Garden 3,,-6.127106,106.7047,1,,0,2,,
B01014P,,Jln. Ciujung Cideng Barat,,-6.176346,106.81197,1,,0,2,,
B01015P,,Jln. Curug Raya Kalimalang,,-6.248303,106.92306,1,,0,2,,
B01016P,,Jln. D Utan Panjang III,,-6.168769,106.85249,1,,0,2,,
B01018P,,Jln. Daan Mogot I,,-6.165723,106.78442,1,,0,2,,
B01019P,,Jln. Daan Mogot II,,-6.16509,106.77951,1,,0,2,,
B01020P,,Jln. Dahlia KDW,,-6.348905,106.88437,1,,0,2,,
B01021P,,Jln. Damai,,-6.242741,106.90184,1,,0,2,,
B01022P,,Jln. Damai IV Petukangan,,-6.248117,106.75192,1,,0,2,,
B01023P,,Jln. Damai Kalisari,,-6.338531,106.86,1,,0,2,,
B01024P,,Jln. Damai Lubang Buaya,,-6.291394,106.90593,1,,0,2,,
B01025P,,Jln. Damai Mandor Munding,,-6.306868,106.91506,1,,0,2,,
B01026P,,Jln. Damai Musyawarah,,-6.310672,106.80576,1,,0,2,,
B01027P,,Jln. Damai PBSI Cilangkap,,-6.332964,106.89167,1,,0,2,,
B01028P,,Jln. Damai Raya,,-6.248569,106.75674,1,,0,2,,
B01029P,,Jln. Damai Susukan,,-6.316684,106.87314,1,,0,2,,
B01030P,,Jln. Danau Indah Timur,,-6.150051,106.88153,1,,0,2,,
B01031P,,Jln. Danau Singkarak,,-6.207851,106.81109,1,,0,2,,
B01032P,,Jln. Darma Wanita V,,-6.161073,106.7317,1,,0,2,,
B01033P,,Jln. Daud I Sukabumi Utara,,-6.206437,106.77434,1,,0,2,,
B01034P,,Jln. Delima I,,-6.297724,106.9045,1,,0,2,,
B01035P,,Jln. Delima Raya,,-6.173827,106.78413,1,,0,2,,
B01036P,,Jln. Delima V,,-6.175306,106.78362,1,,0,2,,
B01037P,,Jln. Depsos Raya,,-6.263491,106.7663,1,,0,2,,
B01038P,,Jln. Deri Ayama 1,,-6.272384,106.86685,1,,0,2,,
B01039P,,Jln. Deri Ayama 2,,-6.272336,106.86687,1,,0,2,,
B01041P,,Jln. Dewi Sinta,,-6.167442,106.91,1,,0,2,,
B01042P,,Jln. Duku Gg. Mantang,,-6.112126,106.90832,1,,0,2,,
B01043P,,Jln. Duku Gg. Wisma,,-6.112159,106.90977,1,,0,2,,
B01044P,,Jln. Duku Lap Bola,,-6.203162,106.75832,1,,0,2,,
B01045P,,Jln. Duku Raya,,-6.245761,106.78413,1,,0,2,,
B01046P,,Jln. Dukuh II,,-6.288462,106.87563,1,,0,2,,
B01047P,,Jln. Dukuh III,,-6.288611,106.8757,1,,0,2,,
B01048P,,Jln. Dul Djaim Cipedak,,-6.36178,106.80714,1,,0,2,,
B01049P,,Jln. Duri Bulan Batu Ampar,,-6.278857,106.8607,1,,0,2,,
B01050P,,Jln. Duri Selatan III,,-6.160101,106.80809,1,,0,2,,
B01051P,,Jln. Duri Tol,,-6.185319,106.77025,1,,0,2,,
B01052P,,Jln. Duri Tss Raya,,-6.156296,106.80807,1,,0,2,,
B01053P,,Jln. Durian 1,,-6.236427,106.75785,1,,0,2,,
B01054P,,Jln. EE Sukabumi Selatan,,-6.213416,106.77895,1,,0,2,,
B01055P,,Jln. Elang Laut Kamal,,-6.124468,106.74879,1,,0,2,,
B01056P,,Jln. Elpa Putih II,,-6.110053,106.88721,1,,0,2,,
B01058P,,Jln. Flamboyan,,-6.297424,106.89605,1,,0,2,,
B01059P,,Jln. Flamboyan Berdikari,,-6.120868,106.89439,1,,0,2,,
B01060P,,Jln. Flamboyan Indah II,,-6.175006,106.98186,1,,0,2,,
B01061P,,Jln. Flamboyan Srengseng,,-6.201831,106.75594,1,,0,2,,
B01062P,,Jln. Gabus Raya,,-6.301222,106.83623,1,,0,2,,
B01063P,,Jln. Gading Ayu I,,-6.148155,106.90987,1,,0,2,,
B01064P,,Jln. Gading Batavia,,-6.148939,106.90002,1,,0,2,,
B01065P,,Jln. Gading Elok Timur IV,,-6.168536,106.90603,1,,0,2,,
B01066P,,Jln. Gading I Pisangan Timur,,-6.204886,106.88169,1,,0,2,,
B01067P,,Jln. Gading Mas Barat IV,,-6.167384,106.91019,1,,0,2,,
B01068P,,Jln. Gading Putih Raya,,-6.175202,106.9006,1,,0,2,,
B01069P,,Jln. Gading Putih Raya Utara,,-6.167864,106.90497,1,,0,2,,
B01070P,,Jln. Gading Raya,,-6.165064,106.90626,1,,0,2,,
B01071P,,Jln. Gading Raya V,,-6.206931,106.88186,1,,0,2,,
B01072P,,Jln. Gaharu II Cilandak,,-6.279992,106.79957,1,,0,2,,
B01073P,,Jln. Galur Jaya,,-6.174642,106.85441,1,,0,2,,
B01074P,,Jln. Gambas Kodam Bintaro,,-6.259766,106.7573,1,,0,2,,
B01075P,,Jln. Gamprit Raya,,-6.27691,106.91306,1,,0,2,,
B01077P,,Jln. Gedong Panjang 1,,-6.133254,106.806,1,,0,2,,
B01078P,,Jln. Gempol Raya,,-6.307501,106.89495,1,,0,2,,
B01079P,,Jln. Giri Kencana Raya Cilangkap,,-6.340412,106.90292,1,,0,2,,
B01080P,,Jln. Gorontalo II,,-6.11345,106.88277,1,,0,2,,
B01081P,,Jln. Gorontalo III,,-6.114008,106.88207,1,,0,2,,
B01082P,,Jln. Gorontalo Sungai Bambu,,-6.114713,106.88118,1,,0,2,,
B01083P,,Jln. Gotong Royong,,-6.260007,106.79662,1,,0,2,,
B01084P,,Jln. Gotong Royong Cipinang Muara,,-6.227649,106.89623,1,,0,2,,
B01085P,,Jln. Grafika,,-6.290158,106.77095,1,,0,2,,
B01088P,,Jln. Guru Saleh,,-6.257895,106.76611,1,,0,2,,
B01089P,,Jln. H Briti B,,-6.186247,106.75508,1,,0,2,,
B01090P,,Jln. H Emuntipala I,,-6.27689,106.8773,1,,0,2,,
B01091P,,Jln. H Mahid,,-6.292494,106.88881,1,,0,2,,
B01092P,,Jln. Hadiah Utama II,,-6.161501,106.77987,1,,0,2,,
B01093P,,Jln. H. Abdullah,,-6.221319,106.77179,1,,0,2,,
B01094P,,Jln. H. Ahmad,,-6.262573,106.78857,1,,0,2,,
B01095P,,Jln. H. Ali Solihin Cibubur,,-6.359265,106.87595,1,,0,2,,
B01096P,,Jln. H. Aman,,-6.226789,106.92316,1,,0,2,,
B01098P,,Jln. H. Aseni Raya,,-6.171954,106.70693,1,,0,2,,
B01099P,,Jln. H. Buang,,-6.296921,106.89716,1,,0,2,,
B01100P,,Jln. H. Buang Ulujami,,-6.247805,106.76313,1,,0,2,,
B01101P,,Jln. H. Daud,,-6.223747,106.77167,1,,0,2,,
B01102P,,Jln. H. Gandun,,-6.311012,106.78671,1,,0,2,,
B01103P,,Jln. H. Gari,,-6.256091,106.75965,1,,0,2,,
B01104P,,Jln. H. Hamid Semanan,,-6.162457,106.70515,1,,0,2,,
B01106P,,Jln. H. Ipin,,-6.311098,106.79357,1,,0,2,,
B01040P,,Jln. Dermaga Raya,,-6.219151,106.89969,1,,0,2,,
B01109P,,Jln. H. Jian 2B Cipete,,-6.264499,106.80426,1,,0,2,,
B01110P,,Jln. H. Jimin Petukangan,,-6.233324,106.75159,1,,0,2,,
B01111P,,Jln. H. Jipin Cijantung,,-6.325726,106.86076,1,,0,2,,
B01112P,,Jln. H. Jusin Susukan,,-6.314775,106.8681,1,,0,2,,
B01113P,,Jln. H. Kasam,,-6.208405,106.7378,1,,0,2,,
B01114P,,Jln. H. Khair,,-6.30416,106.82083,1,,0,2,,
B01115P,,Jln. H. Kincan Rawa Buaya,,-6.164413,106.7355,1,,0,2,,
B01116P,,Jln. H. Komeng Duri Kosambi,,-6.178974,106.7194,1,,0,2,,
B01117P,,Jln. H. Koon,,-6.311078,106.78659,1,,0,2,,
B01119P,,Jln. H. Mahi,,-6.169169,106.96241,1,,0,2,,
B01120P,,Jln. H. Maisin Petukangan,,-6.236635,106.75249,1,,0,2,,
B01121P,,Jln. H. Mali Duri Kosambi,,-6.167927,106.72403,1,,0,2,,
B01122P,,Jln. H. Marzuki Raya Bogor,,-6.328327,106.86483,1,,0,2,,
B01123P,,Jln. H. Mawar Sunter,,-6.157856,106.86771,1,,0,2,,
B01124P,,Jln. H. Minan Kamal,,-6.103639,106.71059,1,,0,2,,
B01126P,,Jln. H. Muala Palmerah,,-6.198447,106.7877,1,,0,2,,
B01127P,,Jln. H. Muhajar,,-6.222549,106.77168,1,,0,2,,
B01128P,,Jln. H. Muhammad Sukabumi Utara,,-6.203587,106.77645,1,,0,2,,
B01129P,,Jln. H. Muhi Pondok Pinang,,-6.266435,106.77491,1,,0,2,,
B01130P,,Jln. H. Muslim,,-6.309044,106.79365,1,,0,2,,
B01131P,,Jln. H. Nasir Srengseng,,-6.205389,106.75825,1,,0,2,,
B01132P,,Jln. H. Nirin I Petukangan,,-6.247926,106.75195,1,,0,2,,
B01134P,,Jln. H. Peeng Kb. Jeruk,,-6.198859,106.7773,1,,0,2,,
B01135P,,Jln. H. Raijin,,-6.272541,106.86378,1,,0,2,,
B01136P,,Jln. H. Ridi Swadarma,,-6.235424,106.76077,1,,0,2,,
B01137P,,Jln. H. Rohimin Swadarma,,-6.232466,106.76069,1,,0,2,,
B01138P,,Jln. H. Saibun Susukan,,-6.31643,106.86732,1,,0,2,,
B01139P,,Jln. H. Saidi,,-6.303505,106.84433,1,,0,2,,
B01140P,,Jln. H. Salihun Kb. Jeruk,,-6.197429,106.77536,1,,0,2,,
B01141P,,Jln. H. Sanusi Taming,,-6.184708,106.77783,1,,0,2,,
B01142P,,Jln. H. Selong Duri Kosambi,,-6.171865,106.72212,1,,0,2,,
B01143P,,Jln. H. Sholeh I,,-6.220068,106.77181,1,,0,2,,
B01144P,,Jln. H. Sholeh IA,,-6.21933,106.77177,1,,0,2,,
B01145P,,Jln. H. Sidan,,-6.280439,106.88257,1,,0,2,,
B01146P,,Jln. H. Tamin S,,-6.16011,106.87705,1,,0,2,,
B01147P,,Jln. H. Terin Pangkalan Jati,,-6.327961,106.80054,1,,0,2,,
B01148P,,Jln. H. Tohir,,-6.224866,106.77157,1,,0,2,,
B01149P,,Jln. H. Ung,,-6.164059,106.85306,1,,0,2,,
B01150P,,Jln. H. Untung Bojong Raya,,-6.170258,106.73355,1,,0,2,,
B01151P,,Jln. H. Zainuddin,,-6.259083,106.78936,1,,0,2,,
B01152P,,Jln. Harun II Sukabumi Utara,,-6.20364,106.77662,1,,0,2,,
B01153P,,Jln. Ikan Hias Batu Ampar,,-6.27255,106.86272,1,,0,2,,
B01154P,,Jln. IKPN Bintaro,,-6.25997,106.76787,1,,0,2,,
B01155P,,Jln. Indraloka Gg. VIII,,-6.154231,106.77871,1,,0,2,,
B01156P,,Jln. Industri 1,,-6.20329,106.62026,1,,0,2,,
B01157P,,Jln. Industri 2,,-6.203092,106.62023,1,,0,2,,
B01158P,,Jln. Industri I,,-6.147508,106.83679,1,,0,2,,
B01159P,,Jln. Industri III,,-6.146214,106.83492,1,,0,2,,
B01160P,,Jln. Industri Suci Raya,,-6.312223,106.86972,1,,0,2,,
B01161P,,Jln. Industri Tj. Priok,,-6.118624,106.86783,1,,0,2,,
B01162P,,Jln. Inspeksi Kali Pesanggrahan Barat,,-6.208392,106.76467,1,,0,2,,
B01163P,,Jln. Irigasi THB,,-6.18227,106.99334,1,,0,2,,
B01164P,,Jln. Janur Elok IX,,-6.144832,106.90223,1,,0,2,,
B01165P,,Jln. Janur Hijau IV,,-6.171558,106.89825,1,,0,2,,
B01166P,,Jln. Janur Indah XI,,-6.155924,106.90801,1,,0,2,,
B01167P,,Jln. Jatinegara Timur II,,-6.218464,106.87018,1,,0,2,,
B01168P,,Jln. Jatinegara Timur III,,-6.218533,106.86864,1,,0,2,,
B01169P,,Jln. Jatinegara Timur IV,,-6.222457,106.86816,1,,0,2,,
B01170P,,Jln. Jatipadang Poncol,,-6.297767,106.83089,1,,0,2,,
B01171P,,Jln. Jaya Abadi,,-6.275357,106.91273,1,,0,2,,
B01173P,,Jln. Jelambar Barat IIIB,,-6.150348,106.78321,1,,0,2,,
B01174P,,Jln. Jelambar Utama Sakti VIII,,-6.153789,106.77908,1,,0,2,,
B01175P,,Jln. Jembatan I Balekambang,,-6.285812,106.8504,1,,0,2,,
B01178P,,Jln. Jeruk Garut,,-6.183912,106.7777,1,,0,2,,
B01179P,,Jln. Jeruk Joglo Barat,,-6.218007,106.7572,1,,0,2,,
B01180P,,Jln. Jeruk Manis,,-6.197439,106.76534,1,,0,2,,
B01181P,,Jln. Jeruk Nipis,,-6.197556,106.76575,1,,0,2,,
B01182P,,Jln. Jiban I Grogol Selatan,,-6.233904,106.78375,1,,0,2,,
B01183P,,Jln. Jiban II Grogol Selatan,,-6.233634,106.78176,1,,0,2,,
B01184P,,Jln. Kaimun Jaya,,-6.292537,106.78705,1,,0,2,,
B01185P,,Jln. Kaja II KDW,,-6.330882,106.88203,1,,0,2,,
B01186P,,Jln. Kaja Raya Ciracas,,-6.328241,106.88214,1,,0,2,,
B01187P,,Jln. Kalanada Dewa Kembar,,-6.108078,106.92544,1,,0,2,,
B01188P,,Jln. Kali Baru Timur VII,,-6.166793,106.85223,1,,0,2,,
B01189P,,Jln. Kaliabang Dukuh,,-6.183299,106.98515,1,,0,2,,
B01190P,,Jln. Kaliabang Rorotan,,-6.128157,106.96325,1,,0,2,,
B01191P,,Jln. Kalibaru Timur III,,-6.171701,106.85198,1,,0,2,,
B01192P,,Jln. Kamboja Ujung,,-6.18333,106.80307,1,,0,2,,
B01195P,,Jln. Kampung Baru,,-6.170069,106.74932,1,,0,2,,
B01196P,,Jln. Kampung Baru II Swadarma,,-6.227325,106.76059,1,,0,2,,
B01197P,,Jln. Kampung Baru Permai,,-6.224943,106.77162,1,,0,2,,
B01198P,,Jln. Kampung Baru V Swadarma,,-6.224839,106.76071,1,,0,2,,
B01199P,,Jln. Kampung Utan Cilandak KKO,,-6.30194,106.81439,1,,0,2,,
B01200P,,Jln. Kapuas Cideng Barat,,-6.175132,106.81166,1,,0,2,,
B01203P,,Jln. Kapuk Bambu Apus,,-6.30636,106.91366,1,,0,2,,
B01205P,,Jln. Karet Pasar Baru Barat I,,-6.204692,106.816351,1,,0,2,,
B01206P,,Jln. Karet Pasar Baru Barat IV,,-6.209179,106.81756,1,,0,2,,
B01207P,,Jln. Karet Pasar Baru Barat VII,,-6.212105,106.81764,1,,0,2,,
B01208P,,Jln. Karet Pasar Baru Timur II,,-6.203949,106.81636,1,,0,2,,
B01209P,,Jln. Kartika Meruya Selatan,,-6.203099,106.73673,1,,0,2,,
B01210P,,Jln. Karya 2,,-6.295061,106.90028,1,,0,2,,
B01211P,,Jln. Karya Bakti III Cijantung,,-6.325758,106.86079,1,,0,2,,
B01212P,,Jln. Karya Bakti Srengseng,,-6.220785,106.76032,1,,0,2,,
B01213P,,Jln. Karya Mandiri Srengseng,,-6.219143,106.76028,1,,0,2,,
B01214P,,Jln. Karya Sakti Srengseng,,-6.216001,106.76008,1,,0,2,,
B01215P,,Jln. Karya Sari Srengseng,,-6.216531,106.76011,1,,0,2,,
B01216P,,Jln. Karya Utama,,-6.217168,106.76249,1,,0,2,,
B01217P,,Jln. Kavling PGRI,,-6.182399,106.99332,1,,0,2,,
B01218P,,Jln. Kayu Putih I,,-6.180885,106.892,1,,0,2,,
B01219P,,Jln. Kayu Putih Selatan III,,-6.187972,106.89525,1,,0,2,,
B01220P,,Jln. Kayu Putih Utara C,,-6.180097,106.89222,1,,0,2,,
B01224P,,Jln. Kebagusan III,,-6.309083,106.82708,1,,0,2,,
B01225P,,Jln. Kebagusan Wates,,-6.315014,106.82531,1,,0,2,,
B01226P,,Jln. Kebantenan IV Gg. R,,-6.109215,106.9311,1,,0,2,,
B01227P,,Jln. Kebantenan V Asrama AIRUD,,-6.107132,106.93225,1,,0,2,,
B01228P,,Jln. Kebembem,,-6.338355,106.82263,1,,0,2,,
B01229P,,Jln. Kb. Bawang XII,,-6.115597,106.88792,1,,0,2,,
B01230P,,Jln. Kb. Bawang XIII,,-6.11557,106.88687,1,,0,2,,
B01231P,,Jln. Kb. Jahe II,,-6.180487,106.81753,1,,0,2,,
B01232P,,Jln. Kb. Kacang VIII,,-6.187181,106.81827,1,,0,2,,
B01233P,,Jln. Kb. Kacang X,,-6.18713,106.8201,1,,0,2,,
B01235P,,Jln. Kb. Nanas,,-6.220356,106.78136,1,,0,2,,
B01238P,,Jln. Kb. Nanas Selatan II,,-6.231955,106.87124,1,,0,2,,
B01239P,,Jln. Kb. Nanas Utara,,-6.231512,106.87125,1,,0,2,,
B01240P,,Jln. Kb. Nanas V Grogol Utara,,-6.219885,106.77855,1,,0,2,,
B01241P,,Jln. Kb. Nanas V Permata Hijau,,-6.220567,106.78137,1,,0,2,,
B01242P,,Jln. Kb. Pala II,,-6.214256,106.8618,1,,0,2,,
B01243P,,Jln. Kecapi,,-6.17224,106.91058,1,,0,2,,
B01245P,,Jln. Kelapa Cengkir Barat VIII,,-6.163304,106.90375,1,,0,2,,
B01246P,,Jln. Kelapa Dua,,-6.216557,106.76997,1,,0,2,,
B01247P,,Jln. Kelapa Gading III Cililitan Besar,,-6.263858,106.86859,1,,0,2,,
B01248P,,Jln. Kelapa Hybrida 10,,-6.144495,106.90988,1,,0,2,,
B01249P,,Jln. Kelapa Hybrida IV,,-6.146604,106.90973,1,,0,2,,
B01250P,,Jln. Kelapa Kopyor Barat IV,,-6.168927,106.90405,1,,0,2,,
B01251P,,Jln. Kelapa Kopyor Timur IV,,-6.169029,106.90417,1,,0,2,,
B01252P,,Jln. Kelapa Nias IV,,-6.152909,106.90938,1,,0,2,,
B01253P,,Jln. Kelapa Puyuh I,,-6.17497,106.90231,1,,0,2,,
B01254P,,Jln. Kelapa Puyuh II,,-6.174869,106.9023,1,,0,2,,
B01255P,,Jln. Kel. Raya,,-6.229105,106.91435,1,,0,2,,
B01257P,,Jln. Kemandoran III Grogol Utara,,-6.20692,106.785842,1,,0,2,,
B01258P,,Jln. Kemandoran VI Grogol Utara,,-6.208236,106.78331,1,,0,2,,
B01259P,,Jln. Kemandoran VII Grogol Utara,,-6.209631,106.78344,1,,0,2,,
B01260P,,Jln. Kemandoran VIII Grogol Utara,,-6.211025,106.78358,1,,0,2,,
B01261P,,Jln. Kemang 1,,-6.255574,106.8118,1,,0,2,,
B01262P,,Jln. Kemang III,,-6.260088,106.81548,1,,0,2,,
B01263P,,Kemang 4,,-6.260102,106.81537,1,,0,2,,
B01264P,,Jln. Kemang Selatan I,,-6.264858,106.81618,1,,0,2,,
B01265P,,Kemang Raya 40,,-6.265429,106.81602,1,,0,2,,
B01266P,,Kemang 8,,-6.268802,106.81555,1,,0,2,,
B01267P,,Jln. Kemang Timur XI,,-6.265541,106.82384,1,,0,2,,
B01268P,,Jln. Kemang Timur XVII,,-6.268651,106.82396,1,,0,2,,
B01269P,,Jln. Kemanggisan Utama I,,-6.189672,106.78914,1,,0,2,,
B01270P,,Jln. Kemanggisan Utama VII,,-6.191061,106.7857,1,,0,2,,
B01271P,,Jln. Kemenyan Ciganjur,,-6.339055,106.80508,1,,0,2,,
B01272P,,Jln. Kenanga,,-6.287468,106.81848,1,,0,2,,
B01273P,,Jln. Kencana Muria Setiabudi,,-6.210088,106.83703,1,,0,2,,
B01276P,,Jln. Kesadaran Kali Malang,,-6.239286,106.88739,1,,0,2,,
B01277P,,Jln. Kesadaran Pool Bus 1,,-6.182475,106.91309,1,,0,2,,
B01279P,,Jln. Kesatuan Cengkareng Barat,,-6.150185,106.71835,1,,0,2,,
B01280P,,Jln. Kesehatan IV Cideng Timur,,-6.172622,106.81142,1,,0,2,,
B01281P,,Jln. Keselamatan 2 Manggarai Selatan,,-6.220617,106.84867,1,,0,2,,
B01221P,,Jln. Kayu Tinggi,,-6.18465,106.94523,1,,0,2,,
B01282P,,Jln. KH A Wahab I,,-6.154911,106.72709,1,,0,2,,
B01202P,,Jln. Kapuk 3,,-6.217924,106.89993,1,,0,2,,
B01201P,,Jln. Kapuk 2,,-6.216186,106.90024,1,,0,2,,
B01283P,,Jln. KH Abdul Hamid Duri Kosambi,,-6.179,106.71959,1,,0,2,,
B01284P,,Jln. KH Aja Meruya Selatan,,-6.200687,106.74099,1,,0,2,,
B01285P,,Jln. KH Cholil,,-6.200518,106.78694,1,,0,2,,
B01286P,,Jln. KH Djunaidi Palmerah,,-6.196904,106.78776,1,,0,2,,
B01288P,,Jln. Kober Balekambang,,-6.282428,106.84937,1,,0,2,,
B01289P,,Jln. Komarudin Timur Lingkar Timur,,-6.196226,106.94401,1,,0,2,,
B01290P,,Jln. Komplek Cakrawala,,-6.11245,106.91587,1,,0,2,,
B01291P,,Jln. Komplek Migas V Palmerah,,-6.197003,106.78772,1,,0,2,,
B01292P,,Jln. Komplek Polri Foremos,,-6.335144,106.86794,1,,0,2,,
B01293P,,Jln. Kota Bambu Raya,,-6.186802,106.80783,1,,0,2,,
B01294P,,Jln. Kota Bambu Selatan IV,,-6.189285,106.80164,1,,0,2,,
B01295P,,Jln. KPBD,,-6.223548,106.77843,1,,0,2,,
B01296P,,Jln. Kramat Cipedak,,-6.363585,106.80336,1,,0,2,,
B01297P,,Jln. Kramat I Rawabinong,,-6.298205,106.9054,1,,0,2,,
B01298P,,Jln. Kramat II Rawabinong,,-6.298627,106.90654,1,,0,2,,
B01299P,,Jln. Kramat III Rawabinong,,-6.299055,106.90782,1,,0,2,,
B01300P,,Jln. Kramat IV Rawabinong,,-6.299375,106.909219,1,,0,2,,
B01301P,,Jln. Kramat Lubang Buaya,,-6.291363,106.90599,1,,0,2,,
B01302P,,Jln. Kramat Pangeran Syarif,,-6.28524,106.90141,1,,0,2,,
B01303P,,Jln. Kramat V Rawabinong,,-6.300009,106.91039,1,,0,2,,
B01304P,,Jln. KRI Harimau,,-6.253467,106.79112,1,,0,2,,
B01305P,,Jln. Krupuk,,-6.312683,106.91301,1,,0,2,,
B01306P,,Jln. KS Tubun II,,-6.1919,106.80579,1,,0,2,,
B01307P,,Jln. Kumbang Cililitan,,-6.269099,106.86019,1,,0,2,,
B01308P,,Jln. Kunang Kunang 1,,-6.256656,107.02149,1,,0,2,,
B01309P,,Jln. Kunang Kunang 2,,-6.25692,107.02125,1,,0,2,,
B01310P,,Jln. Kuning Tua,,-6.164733,106.90996,1,,0,2,,
B01311P,,Jln. Kwitang Timur,,-6.173788,106.85185,1,,0,2,,
B01312P,,Jln. Lagoa Kanal,,-6.111979,106.88416,1,,0,2,,
B01313P,,Jln. Langgar,,-6.218336,106.75392,1,,0,2,,
B01314P,,Jln. Lapangan Bola II,,-6.201787,106.76025,1,,0,2,,
B01315P,,Jln. Lapangan Merah,,-6.218499,106.75514,1,,0,2,,
B01316P,,Jln. Lapangan Ros II Bukit Duri,,-6.22434,106.85512,1,,0,2,,
B01317P,,Jln. Lapangan Ros III Bukit Duri,,-6.22093,106.85398,1,,0,2,,
B01318P,,Jln. Lapangan Tenis Srengseng,,-6.205207,106.7583,1,,0,2,,
B01319P,,Jln. Leman Bambu Batas,,-6.241589,106.89848,1,,0,2,,
B01320P,,Jln. Lembah Palem Pondok Kelapa,,-6.236358,106.93438,1,,0,2,,
B01323P,,Jln. Limo Jatinegara Timur,,-6.223388,106.86808,1,,0,2,,
B01324P,,Jln. Lorong 19,,-6.107881,106.89701,1,,0,2,,
B01325P,,Jln. Lorong 22,,-6.108141,106.89932,1,,0,2,,
B01326P,,Jln. Lorong 4,,-6.107701,106.89492,1,,0,2,,
B01327P,,Jln. Lorong 5,,-6.107716,106.8955,1,,0,2,,
B01328P,,Jln. Lotus Indah,,-6.116215,106.76534,1,,0,2,,
B01329P,,Jln. M Sarbini Munggang,,-6.276747,106.85169,1,,0,2,,
B01330P,,Jln. Madrasah Al Husna,,-6.299956,106.77531,1,,0,2,,
B01331P,,Jln. Madrasah Bambu Batas,,-6.241656,106.89874,1,,0,2,,
B01332P,,Jln. Madrasah Daan Mogot,,-6.155691,106.70774,1,,0,2,,
B01333P,,Jln. Madrasah Duri Kosambi,,-6.179068,106.72159,1,,0,2,,
B01334P,,Jln. Madrasah I Bojong Raya,,-6.168523,106.7341,1,,0,2,,
B01335P,,Jln. Madrasah II Sukabumi Selatan,,-6.209608,106.78336,1,,0,2,,
B01337P,,Jln. Madrasah Sukabumi Utara,,-6.203292,106.77151,1,,0,2,,
B01338P,,Jln. Majalah,,-6.232603,106.88758,1,,0,2,,
B01339P,,Jln. Majelis Meruya Ilir,,-6.197218,106.75773,1,,0,2,,
B01340P,,Jln. Makam,,-6.238418,106.77745,1,,0,2,,
B01341P,,Jln. Makmur,,-6.30788,106.86715,1,,0,2,,
B01342P,,Jln. Makmur Raya Bogor,,-6.309281,106.86352,1,,0,2,,
B01343P,,Jln. Malaka HB Rorotan,,-6.142495,106.95634,1,,0,2,,
B01344P,,Jln. MAN 2,,-6.300627,106.88067,1,,0,2,,
B01345P,,Jln. Mandala Selatan II,,-6.173856,106.80019,1,,0,2,,
B01346P,,Jln. Mandiri Ciracas,,-6.316376,106.87326,1,,0,2,,
B01347P,,Jln. Mandiri Tengah,,-6.1591,106.90961,1,,0,2,,
B01348P,,Jln. Mandor Munding,,-6.307095,106.91558,1,,0,2,,
B01349P,,Jln. Mangga,,-6.27047,106.79737,1,,0,2,,
B01350P,,Jln. Mangga Besar 13,,-6.141214,106.82696,1,,0,2,,
B01351P,,Jln. Mangga Besar 13 Raya,,-6.147952,106.82669,1,,0,2,,
B01352P,,Jln. Mangga Cibubur,,-6.356542,106.88056,1,,0,2,,
B01354P,,Jln. Mangga Dua I Utara,,-6.137564,106.81894,1,,0,2,,
B01355P,,Jln. Mangga Dua VIII,,-6.13562,106.82825,1,,0,2,,
B01357P,,Jln. Mangga KDW,,-6.332033,106.88186,1,,0,2,,
B01358P,,Jln. Manggis Pangeran Jayakarta,,-6.139865,106.8203,1,,0,2,,
B01359P,,Jln. Manunggal Bakti Kalisari,,-6.335016,106.85277,1,,0,2,,
B01360P,,Jln. Manunggal II Ceger,,-6.311199,106.88876,1,,0,2,,
B01361P,,Jln. Manunggal II Petukangan,,-6.245931,106.7519,1,,0,2,,
B01362P,,Jln. Manunggal Meruya Selatan,,-6.203307,106.73894,1,,0,2,,
B01363P,,Jln. Manunggal XIII Raya Condet,,-6.277929,106.85496,1,,0,2,,
B01364P,,Jln. Marabahan Cideng,,-6.172066,106.80538,1,,0,2,,
B01366P,,Jln. Martaip Sukabumi Selatan,,-6.216977,106.77718,1,,0,2,,
B01367P,,Jln. Marunda Baru,,-6.125303,106.95692,1,,0,2,,
B01368P,,Jln. Masjid Al Anwar Sukabumi Selatan,,-6.210884,106.78348,1,,0,2,,
B01369P,,Jln. Masjid Al Ihsan,,-6.280339,106.87117,1,,0,2,,
B01370P,,Jln. Masjid Al Ikhlas,,-6.23727,106.93436,1,,0,2,,
B01371P,,Jln. Masjid Al Jadid I Baru,,-6.328279,106.8512,1,,0,2,,
B01372P,,Jln. Masjid Al Wustho,,-6.245281,106.90494,1,,0,2,,
B01373P,,Jln. Masjid Almuqorrobin Kalimalang,,-6.239887,106.89057,1,,0,2,,
B01374P,,Jln. Masjid Baabul Minan,,-6.220471,106.741,1,,0,2,,
B01375P,,Jln. Masjid Jatinegara,,-6.219428,106.86879,1,,0,2,,
B01376P,,Jln. Masjid Soeprapto,,-6.277536,106.87806,1,,0,2,,
B01377P,,Jln. Mastrip,,-6.306793,106.87756,1,,0,2,,
B01378P,,Jln. Mawar Kav DKI,,-6.208619,106.73068,1,,0,2,,
B01379P,,Jln. Melati,,-6.272865,106.8769,1,,0,2,,
B01380P,,Jln. Melati Bhakti,,-6.229557,106.9015,1,,0,2,,
B01381P,,Jln. Melati Indah Pejuang,,-6.180893,106.97951,1,,0,2,,
B01382P,,Jln. Melati PKP,,-6.339932,106.87859,1,,0,2,,
B01383P,,Jln. Melati Senen,,-6.176615,106.84444,1,,0,2,,
B01384P,,Jln. Melati Tugu V,,-6.121401,106.90793,1,,0,2,,
B01385P,,Jln. Melur Tugu,,-6.12276,106.90791,1,,0,2,,
B01386P,,Jln. Melur Tugu VI,,-6.124445,106.90783,1,,0,2,,
B01387P,,Jln. Menteng,,-6.113156,106.91703,1,,0,2,,
B01388P,,Jln. Menteng Atas Raya,,-6.214616,106.83799,1,,0,2,,
B01389P,,Jln. Menteng Pulo II,,-6.221456,106.84094,1,,0,2,,
B01390P,,Jln. Merpati Putih Kembangan Utara,,-6.173415,106.7336,1,,0,2,,
B01391P,,Jln. Merpati Raya Pesanggrahan,,-6.249642,106.75673,1,,0,2,,
B01392P,,Jln. Mesjid Abidin,,-6.229484,106.90194,1,,0,2,,
B01393P,,Jln. Mesjid Al Mabruk,,-6.28435,106.85293,1,,0,2,,
B01394P,,Jln. Mesjid Al Munir,,-6.271471,106.87728,1,,0,2,,
B01395P,,Jln. Mesjid Attaqwa Kembangan Utara,,-6.175315,106.7339,1,,0,2,,
B01396P,,Jln. Mesjid I Benhil,,-6.205368,106.80654,1,,0,2,,
B01397P,,Jln. Metro Duta 1,,-6.283107,106.78028,1,,0,2,,
B01398P,,Jln. Metro Sunter Jaya,,-6.137262,106.87422,1,,0,2,,
B01399P,,Jln. Mini,,-6.311142,106.90423,1,,0,2,,
B01400P,,Jln. Mini I,,-6.311268,106.90545,1,,0,2,,
B01401P,,Jln. Mini II,,-6.308713,106.9078,1,,0,2,,
B01402P,,Jln. Mini III,,-6.305891,106.91017,1,,0,2,,
B01403P,,Jln. Minyak Raya,,-6.253372,106.83813,1,,0,2,,
B01404P,,Jln. Mokmer 1,,-6.149426,106.83966,1,,0,2,,
B01405P,,Jln. Muara 1,,-6.304063,106.85061,1,,0,2,,
B01406P,,Jln. Muhidin KDW,,-6.335157,106.87957,1,,0,2,,
B01407P,,Jln. Mujair Raya,,-6.299485,106.83347,1,,0,2,,
B01408P,,Jln. Muncang,,-6.116164,106.91033,1,,0,2,,
B01409P,,Jln. Mundu,,-6.294375,106.88957,1,,0,2,,
B01410P,,Jln. Murai II Jati Padang,,-6.287663,106.82545,1,,0,2,,
B01411P,,Jln. Musyawarah Panjang Arteri,,-6.200859,106.76922,1,,0,2,,
B01412P,,Jln. Mutiara Benhil,,-6.209709,106.81236,1,,0,2,,
B01413P,,Jln. Nagrak Marunda,,-6.126878,106.95677,1,,0,2,,
B01414P,,Jln. Nanas Lap Bola,,-6.200826,106.76062,1,,0,2,,
B01415P,,Jln. Nanggala Dewa Kembar,,-6.10741,106.92535,1,,0,2,,
B01416P,,Jln. Nangka,,-6.306392,106.89015,1,,0,2,,
B01417P,,Jln. Nangka 1,,-6.303876,106.84724,1,,0,2,,
B01418P,,Jln. Nangka Raya,,-6.304178,106.84515,1,,0,2,,
B01419P,,Jln. Nangka Tomang Asli,,-6.178329,106.80409,1,,0,2,,
B01420P,,Jln. Ngarbingan,,-6.245333,106.88115,1,,0,2,,
B01421P,,Jln. Nimun Raya,,-6.253204,106.77344,1,,0,2,,
B01423P,,Jln. Nusa Indah II,,-6.219858,106.93152,1,,0,2,,
B01425P,,Jln. Nusa Indah V,,-6.218179,106.93549,1,,0,2,,
B01426P,,Jln. Nusa Indah VI,,-6.218255,106.93619,1,,0,2,,
B01427P,,Jln. Nusa Indah VII,,-6.218457,106.93803,1,,0,2,,
B01428P,,Jln. Olahraga 1 Raya Bogor,,-6.267006,106.86595,1,,0,2,,
B01429P,,Jln. Olahraga I Raya Condet,,-6.266695,106.86058,1,,0,2,,
B01430P,,Jln. Otista III Komplek IV,,-6.231907,106.87555,1,,0,2,,
B01431P,,Jln. Otista III Selatan,,-6.231786,106.86931,1,,0,2,,
B01432P,,Jln. Otista III Utara,,-6.23171,106.86936,1,,0,2,,
B01433P,,Jln. Pahlawan,,-6.300584,106.76211,1,,0,2,,
B01434P,,Jln. Pahlawan Sukabumi Selatan,,-6.223927,106.77164,1,,0,2,,
B01435P,,Jln. Pakarena,,-6.170344,106.90914,1,,0,2,,
B01436P,,Jln. Pala,,-6.294269,106.90439,1,,0,2,,
B01438P,,Jln. Palatehan II,,-6.241135,106.80129,1,,0,2,,
B01439P,,Jln. Palem,,-6.218201,106.75716,1,,0,2,,
B01440P,,Jln. Palem Jepang Baru,,-6.218391,106.61589,1,,0,2,,
B01441P,,Jln. Palmerah Barat IV,,-6.206862,106.78637,1,,0,2,,
B01442P,,Jln. Palmerah Utara I,,-6.202107,106.79887,1,,0,2,,
B01443P,,Jln. Palmerah Utara II,,-6.202805,106.79801,1,,0,2,,
B01444P,,Jln. Pam Baru,,-6.204796,106.80946,1,,0,2,,
B01446P,,Jln. Pam Lama I,,-6.203921,106.80538,1,,0,2,,
B01447P,,Jln. Panca Warga 3,,-6.23362,106.88365,1,,0,2,,
B01448P,,Jln. Panca Warga IV,,-6.239508,106.88341,1,,0,2,,
B01449P,,Jln. Pancoran Indah 1,,-6.251998,106.84266,1,,0,2,,
B01450P,,Jln. Pancoran Timur III,,-6.249482,106.84661,1,,0,2,,
B01451P,,Jln. Pancoran Timur V,,-6.249467,106.84703,1,,0,2,,
B01452P,,Jln. Pancoran Timur VII,,-6.249444,106.84822,1,,0,2,,
B01453P,,Jln. Pancoran Ulujami,,-6.252292,106.76447,1,,0,2,,
B01454P,,Jln. Pangeran Balekambang,,-6.281031,106.85073,1,,0,2,,
B01455P,,Jln. Pangkalan Jati VI,,-6.254467,106.90953,1,,0,2,,
B01456P,,Jln. Papandayan Muria Setiabudi,,-6.209879,106.83677,1,,0,2,,
B01457P,,Jln. Parkit Bulak Ringin,,-6.349665,106.87296,1,,0,2,,
B01458P,,Jln. Ps. Enjo,,-6.211754,106.87872,1,,0,2,,
B01460P,,Jln. Pasopati Dewa Kembar,,-6.108065,106.92548,1,,0,2,,
B01462P,,Jln. Pekan Raya,,-6.151154,106.84215,1,,0,2,,
B01463P,,Jln. Pelepah Elok I,,-6.152983,106.90908,1,,0,2,,
B01464P,,Jln. Pelepah Elok VIII,,-6.149005,106.90064,1,,0,2,,
B01465P,,Jln. Pelita,,-6.250861,106.7782,1,,0,2,,
B01466P,,Jln. Pemadam Kebakaran Cacing,,-6.128677,106.93011,1,,0,2,,
B01467P,,Jln. Pemancingan Srengseng,,-6.206771,106.7586,1,,0,2,,
B01468P,,Jln. Penataran,,-6.20228,106.84418,1,,0,2,,
B01469P,,Jln. Pendet,,-6.172117,106.90895,1,,0,2,,
B01470P,,Jln. Pendidikan Jatinegara Kaum,,-6.212717,106.8977,1,,0,2,,
B01471P,,Jln. Pengadegan Utara,,-6.246563,106.85854,1,,0,2,,
B01472P,,Jln. Pepaya V Jagakarsa,,-6.320652,106.81847,1,,0,2,,
B01473P,,Jln. Pepaya VI Jagakarsa,,-6.32031,106.81852,1,,0,2,,
B01474P,,Jln. Percetakan Susukan,,-6.323535,106.86973,1,,0,2,,
B01475P,,Jln. Perdagangan,,-6.305576,106.91666,1,,0,2,,
B01476P,,Jln. Perdagangan Bintaro,,-6.27461,106.7633,1,,0,2,,
B01478P,,Jln. Perkutut Bukit Duri,,-6.220981,106.85438,1,,0,2,,
B01479P,,Jln. Permata Indah 8,,-6.182805,106.98805,1,,0,2,,
B01480P,,Jln. Pertanian II,,-6.302022,106.77751,1,,0,2,,
B01481P,,Jln. Pesanggrahan,,-6.308339,106.75598,1,,0,2,,
B01482P,,Jln. Peta Utara,,-6.144574,106.70249,1,,0,2,,
B01483P,,Jln. Petak Baru,,-6.139494,106.8079,1,,0,2,,
B01484P,,Jln. Petamburan IIb,,-6.189365,106.80175,1,,0,2,,
B01485P,,Jln. Petamburan KS Tubun,,-6.188778,106.80951,1,,0,2,,
B01487P,,Jln. Petojo Barat Raya,,-6.164893,106.81067,1,,0,2,,
B01488P,,Jln. Petojo Barat V,,-6.163077,106.81043,1,,0,2,,
B01490P,,Jln. Petojo Selatan VII,,-6.168829,106.81058,1,,0,2,,
B01491P,,Jln. Petukangan Indah,,-6.248575,106.75558,1,,0,2,,
B01492P,,Jln. Pinang Gg II,,-6.112326,106.90458,1,,0,2,,
B01493P,,Jln. Pinang II Pondok Labu,,-6.310414,106.79665,1,,0,2,,
B01494P,,Jln. Pinang IIIb,,-6.308157,106.79798,1,,0,2,,
B01495P,,Jln. Pinang IV Pondok Labu,,-6.30749,106.80082,1,,0,2,,
B01496P,,Jln. Pinang Kalijati 1 Pondok Labu,,-6.306302,106.80102,1,,0,2,,
B01497P,,Jln. Pinang Raya,,-6.308942,106.79372,1,,0,2,,
B01498P,,Jln. Pinang VI Pondok Labu,,-6.30618,106.80099,1,,0,2,,
B01499P,,Jln. Pinangsia I,,-6.140969,106.81456,1,,0,2,,
B01500P,,Jln. Pintu Air II Pasar Baru,,-6.164921,106.8302,1,,0,2,,
B01501P,,Jln. Pintu Air V Pasar Baru,,-6.163562,106.8293,1,,0,2,,
B01502P,,Jln. Pisangan Lama I,,-6.214711,106.875,1,,0,2,,
B01503P,,Jln. Pisangan Lama II,,-6.214575,106.87633,1,,0,2,,
B01504P,,Jln. Pisangan Lama III,,-6.214491,106.87763,1,,0,2,,
B01505P,,Jln. Plk II Cililitan Besar,,-6.265021,106.87468,1,,0,2,,
B01506P,,Jln. Pluit Karang Indah XV,,-6.116999,106.78083,1,,0,2,,
B01508P,,Jln. Pluit Raya 2,,-6.125392,106.7978,1,,0,2,,
B01509P,,Jln. Poncol Jaya 1,,-6.239706,106.81889,1,,0,2,,
B01510P,,Jln. Poncol Jaya 2,,-6.239441,106.81883,1,,0,2,,
B01511P,,Jln. Pondok Kelapa Selatan,,-6.249524,106.93552,1,,0,2,,
B01512P,,Jln. Pondok Labu 1A,,-6.301927,106.79248,1,,0,2,,
B01513P,,Jln. Pondok Pinang IV,,-6.26655,106.775,1,,0,2,,
B01514P,,Jln. Pontian Halim,,-6.249205,106.89336,1,,0,2,,
B01515P,,Jln. Pratama I Rorotan,,-6.141574,106.95616,1,,0,2,,
B01516P,,Jln. Primanota,,-6.168008,106.91097,1,,0,2,,
B01517P,,Jln. Pucung 1 Munggang,,-6.27934,106.85085,1,,0,2,,
B01518P,,Jln. Pucung 2 Munggang,,-6.278959,106.85078,1,,0,2,,
B01519P,,Jln. Pulau Sangiyang Lingkar Timur,,-6.193412,106.94376,1,,0,2,,
B01520P,,Jln. Pule Ciracas,,-6.314331,106.8759,1,,0,2,,
B01521P,,Jln. Pule I Cijantung,,-6.326061,106.86306,1,,0,2,,
B01522P,,Jln. Pulo Gundul,,-6.186182,106.85155,1,,0,2,,
B01523P,,Jln. Pulo Mas Barat VI,,-6.177823,106.88231,1,,0,2,,
B01525P,,Jln. Pulogayung Petukangan,,-6.248536,106.75563,1,,0,2,,
B01526P,,Jln. Puma Bundaran Kemayoran,,-6.155895,106.85126,1,,0,2,,
B01527P,,Jln. Pura Agung Taman Sari,,-6.248963,106.89336,1,,0,2,,
B01529P,,Jln. Puri Lingkar Dalam,,-6.184763,106.73503,1,,0,2,,
B01530P,,Jln. Putra III Jagakarsa,,-6.335528,106.83154,1,,0,2,,
B01531P,,Jln. Rajai Ulujami,,-6.241707,106.76292,1,,0,2,,
B01532P,,Jln. Rama IX,,-6.299269,106.90856,1,,0,2,,
B01533P,,Jln. Rasamala Dalam,,-6.174938,106.80488,1,,0,2,,
B01534P,,Jln. Rasela,,-6.148562,106.8385,1,,0,2,,
B01535P,,Jln. Ratu Melati 5,,-6.168539,106.76987,1,,0,2,,
B01536P,,Jln. Rawa Belong 2B,,-6.200607,106.78708,1,,0,2,,
B01537P,,Jln. Rawa Indah,,-6.266569,106.91152,1,,0,2,,
B01538P,,Jln. Rawa Kepa IX,,-6.174091,106.80308,1,,0,2,,
B01539P,,Jln. Rawa Segaran,,-6.306765,106.8919,1,,0,2,,
B01540P,,Jln. Raya Pelepah Indah,,-6.153095,106.90661,1,,0,2,,
B01541P,,Jln. Rejo,,-6.259506,106.79685,1,,0,2,,
B01542P,,Jln. Rela Menteng Pulo,,-6.221416,106.84196,1,,0,2,,
B01543P,,Jln. Rorotan IX Gg. IV,,-6.160091,106.95916,1,,0,2,,
B01544P,,Jln. Rorotan V Gg. 1,,-6.136056,106.95477,1,,0,2,,
B01545P,,Jln. Rorotan XI,,-6.145774,106.95655,1,,0,2,,
B01546P,,Jln. Ruby Kembangan Utara,,-6.179727,106.73419,1,,0,2,,
B01547P,,Jln. Rukem Jaya 2,,-6.178932,106.96168,1,,0,2,,
B01548P,,Jln. S Kalimalang Tarum Barat,,-6.248748,106.90841,1,,0,2,,
B01549P,,Jln. Sabar 1 Petukangan,,-6.240055,106.75249,1,,0,2,,
B01553P,,Jln. Sahabat Kamal,,-6.106197,106.70258,1,,0,2,,
B01555P,,Jln. Salam IV,,-6.20349,106.77897,1,,0,2,,
B01556P,,Jln. Salman Kb. Jeruk,,-6.197895,106.77642,1,,0,2,,
B01557P,,Jln. Sambu Halim,,-6.247047,106.89053,1,,0,2,,
B01558P,,Jln. Sandratex 1,,-6.293846,106.76507,1,,0,2,,
B01559P,,Jln. Sandratex 2,,-6.293633,106.76529,1,,0,2,,
B01560P,,Jln. Sanggau Cideng,,-6.169944,106.80396,1,,0,2,,
B01562P,,Jln. Saorma Kalisari,,-6.338286,106.85875,1,,0,2,,
B01563P,,Jln. Saraswati Cipete,,-6.263214,106.8042,1,,0,2,,
B01565P,,Jln. Satria VI Grogol,,-6.165395,106.78837,1,,0,2,,
B01566P,,Jln. Sawah Mede I,,-6.0981,106.70801,1,,0,2,,
B01568P,,Jln. Sawo III Pegambiran,,-6.201116,106.89042,1,,0,2,,
B01569P,,Jln. SDN Kap Pulo,,-6.178232,106.71373,1,,0,2,,
B01570P,,Jln. Sejahtera,,-6.276295,106.91284,1,,0,2,,
B01571P,,Jln. Selat Potinti,,-6.23613,106.9164,1,,0,2,,
B01572P,,Jln. Selatan Lap Bola,,-6.204334,106.75804,1,,0,2,,
B01573P,,Jln. Semanan II,,-6.163679,106.70529,1,,0,2,,
B01575P,,Jln. Sepakat,,-6.297483,106.89612,1,,0,2,,
B01576P,,Jln. Sepakat X Raya Cilangkap,,-6.340473,106.90299,1,,0,2,,
B01578P,,Jln. Serdang,,-6.228906,106.91459,1,,0,2,,
B01579P,,Jln. Seroja Cengkareng Barat,,-6.147868,106.71954,1,,0,2,,
B01580P,,Jln. Setia 1,,-6.269279,106.91183,1,,0,2,,
B01583P,,Jln. Siman Noar,,-6.300103,106.88072,1,,0,2,,
B01584P,,Jln. Simprug Golf 2,,-6.227607,106.79042,1,,0,2,,
B01585P,,Jln. Sindang Terusan,,-6.111462,106.89934,1,,0,2,,
B01586P,,Jln. Sitrun,,-6.197192,106.76696,1,,0,2,,
B01587P,,Jln. SMAN 63,,-6.228154,106.74704,1,,0,2,,
B01588P,,Jln. SMAN 64,,-6.332331,106.89008,1,,0,2,,
B01589P,,Jln. SMAN 99,,-6.351933,106.8725,1,,0,2,,
B01590P,,Jln. SMP 171,,-6.313102,106.87528,1,,0,2,,
B01591P,,Jln. SMP 175,,-6.319534,106.82512,1,,0,2,,
B01592P,,Jln. SMPN 147,,-6.362267,106.88793,1,,0,2,,
B01593P,,Jln. Sodong Raya Persahabatan,,-6.202647,106.89628,1,,0,2,,
B01594P,,Jln. SPG 7,,-6.286157,106.9049,1,,0,2,,
B01595P,,Jln. SPG 7 Al Baidho,,-6.292667,106.90142,1,,0,2,,
B01596P,,Jln. Srengseng Dalam Lap Bola,,-6.203141,106.75978,1,,0,2,,
B01597P,,Jln. Srengseng Raya 1,,-6.217561,106.75992,1,,0,2,,
B01598P,,Jln. Srengseng Raya 2,,-6.217405,106.76064,1,,0,2,,
B01599P,,Jln. Suci Raya Bogor,,-6.318636,106.86474,1,,0,2,,
B01600P,,Jln. Sukabumi Selatan,,-6.216704,106.76921,1,,0,2,,
B01601P,,Jln. Sukamulya III Harapan Mulya,,-6.170439,106.8524,1,,0,2,,
B01602P,,Jln. Sumanggung 3,,-6.171242,106.90278,1,,0,2,,
B01604P,,Jln. Summagung II Barat,,-6.172386,106.90189,1,,0,2,,
B01605P,,Jln. Summagung II Timur,,-6.17247,106.90203,1,,0,2,,
B01606P,,Jln. Sunan Drajad,,-6.193665,106.89479,1,,0,2,,
B01607P,,Jln. Sungai Barito Sembar,,-6.129487,106.91884,1,,0,2,,
B01608P,,Jln. Sungai Landak,,-6.109326,106.94138,1,,0,2,,
B01609P,,Jln. Sungai Musi Sembar,,-6.130691,106.91966,1,,0,2,,
B01610P,,Jln. Sungai Sambas VI,,-6.246441,106.7978,1,,0,2,,
B01611P,,Jln. Sunter Jaya V,,-6.159128,106.87008,1,,0,2,,
B01612P,,Jln. Sunter Jaya VI,,-6.160663,106.8727,1,,0,2,,
B01613P,,Jln. Supriyadi,,-6.173794,106.65622,1,,0,2,,
B01614P,,Jln. Swadarma I,,-6.235473,106.76071,1,,0,2,,
B01615P,,Jln. Swadarma III,,-6.232719,106.76064,1,,0,2,,
B01616P,,Jln. Swadarma Raya,,-6.237451,106.76089,1,,0,2,,
B01617P,,Jln. Swadarma Utara,,-6.229106,106.76056,1,,0,2,,
B01618P,,Jln. Swadarma Utara VI,,-6.227071,106.76054,1,,0,2,,
B01619P,,Jln. Swadaya I,,-6.297164,106.89478,1,,0,2,,
B01620P,,Jln. Swadaya Pln,,-6.20965,106.90171,1,,0,2,,
B01621P,,Jln. Swadaya Pos Rawa Kuning,,-6.198443,106.96157,1,,0,2,,
B01622P,,Jln. Swadaya Raya,,-6.228375,106.91677,1,,0,2,,
B01623P,,Jln. Swadaya Raya Jelambar,,-6.159064,106.7781,1,,0,2,,
B01624P,,Jln. Swakarsa III Pondok Kelapa,,-6.244759,106.94249,1,,0,2,,
B01626P,,Jln. Swasembada Barat II,,-6.126116,106.88485,1,,0,2,,
B01567P,,Jln. Sawo III,,-6.216352,106.844169,1,,0,2,,
B01550P,,Jln. Sadar,,-6.221149,106.84638,1,,0,2,,
B01581P,,Jln. Siaga Bakti 2,,-6.273291,106.84642,1,,0,2,,
B01627P,,Jln. Swasembada Barat III,,-6.125647,106.8849,1,,0,2,,
B01628P,,Jln. Swasembada Barat IX,,-6.123297,106.885,1,,0,2,,
B01629P,,Jln. Swasembada Barat V,,-6.124938,106.88497,1,,0,2,,
B01630P,,Jln. Swasembada Barat VI,,-6.124364,106.88501,1,,0,2,,
B01631P,,Jln. Swasembada Barat VIII,,-6.123894,106.88502,1,,0,2,,
B01632P,,Jln. Swasembada Barat XI,,-6.122565,106.88497,1,,0,2,,
B01633P,,Jln. Swasembada Barat XII,,-6.122157,106.88881,1,,0,2,,
B01634P,,Jln. Swasembada Timur XV,,-6.121072,106.88852,1,,0,2,,
B01635P,,Jln. Tali Kota Bambu Selatan,,-6.189326,106.79927,1,,0,2,,
B01636P,,Jln. Taman Alfa Indah,,-6.218503,106.75404,1,,0,2,,
B01637P,,Jln. Taman Enau,,-6.232643,106.93435,1,,0,2,,
B01638P,,Jln. Taman Jatibaru Timur,,-6.182778,106.8129,1,,0,2,,
B01639P,,Jln. Taman Kb. Sirih,,-6.182295,106.81661,1,,0,2,,
B01640P,,Jln. Taman Kemang,,-6.255317,106.8095,1,,0,2,,
B01641P,,Jln. Taman Malaka Utara 3 Gg D,,-6.230639,106.93161,1,,0,2,,
B01642P,,Jln. Taman Malaka Utara Gg A,,-6.230712,106.9335,1,,0,2,,
B01643P,,Jln. Taman Sari I,,-6.161249,106.82678,1,,0,2,,
B01644P,,Jln. Taman Sari X,,-6.152959,106.82708,1,,0,2,,
B01645P,,Jln. Taman Sari XI,,-6.150017,106.82676,1,,0,2,,
B01646P,,Jln. Taman Surya I,,-6.164861,106.77935,1,,0,2,,
B01647P,,Jln. Tambora VI,,-6.141703,106.80777,1,,0,2,,
B01648P,,Jln. Tambora VI Gg. 2,,-6.14285,106.80679,1,,0,2,,
B01649P,,Jln. Tanah Abang I,,-6.173433,106.8214,1,,0,2,,
B01650P,,Jln. Tanah Abang II,,-6.175527,106.82046,1,,0,2,,
B01651P,,Jln. Tanah Abang III,,-6.177087,106.81961,1,,0,2,,
B01652P,,Jln. Tanah Abang IV Cideng,,-6.177539,106.81265,1,,0,2,,
B01653P,,Jln. Tanah Abang V,,-6.179361,106.8182,1,,0,2,,
B01654P,,Jln. Tanah Sereal X,,-6.155909,106.80818,1,,0,2,,
B01655P,,Jln. Tanah Sereal XIII,,-6.155353,106.80815,1,,0,2,,
B01656P,,Jln. Tanah Tinggi I,,-6.1754,106.84541,1,,0,2,,
B01657P,,Jln. Tanah Tinggi III,,-6.175078,106.84765,1,,0,2,,
B01659P,,Jln. Tj. Duren Timur I,,-6.181546,106.79251,1,,0,2,,
B01660P,,Jln. Tj. Duren Timur Raya,,-6.173797,106.78653,1,,0,2,,
B01661P,,Jln. Tj. Duren Utara 8,,-6.173847,106.78057,1,,0,2,,
B01662P,,Jln. Tj. Duren Utara V,,-6.173301,106.78304,1,,0,2,,
B01663P,,Jln. Tj. Gedong,,-6.166664,106.79388,1,,0,2,,
B01664P,,Jln. Tari Klasik,,-6.169164,106.91063,1,,0,2,,
B01665P,,Jln. Tawakal VA,,-6.16866,106.79501,1,,0,2,,
B01666P,,Jln. Tawakal VIA,,-6.169154,106.79411,1,,0,2,,
B01667P,,Jln. Tebet Barat Dalam VIII,,-6.241241,106.84754,1,,0,2,,
B01668P,,Jln. Tebet Barat VIII,,-6.238492,106.85002,1,,0,2,,
B01669P,,Jln. Tebet Dalam If,,-6.223877,106.849087,1,,0,2,,
B01670P,,Jln. Tebet Dalam VI A,,-6.238984,106.84825,1,,0,2,,
B01673P,,Jln. Tebet Timur III,,-6.237629,106.85348,1,,0,2,,
B01674P,,Jln. Tegal Amba Rt03,,-6.223017,106.90648,1,,0,2,,
B01675P,,Jln. Telepon Kota,,-6.137233,106.81165,1,,0,2,,
B01676P,,Jln. Teluk Mandar 1,,-6.238715,106.90988,1,,0,2,,
B01677P,,Jln. Teluk Mandar 2,,-6.238944,106.91004,1,,0,2,,
B01678P,,Jln. Teratai Cililitan,,-6.269234,106.86015,1,,0,2,,
B01679P,,Jln. Teratai Komplek Wijaya Kusuma,,-6.225927,106.90634,1,,0,2,,
B01680P,,Jln. Tiang Bendera III,,-6.134768,106.80901,1,,0,2,,
B01681P,,Jln. Timah Harapan Mulya,,-6.171922,106.85232,1,,0,2,,
B01682P,,Jln. Timbul III,,-6.350411,106.80329,1,,0,2,,
B01683P,,Jln. Timbul IV,,-6.350916,106.80771,1,,0,2,,
B01684P,,Jln. Tipar Cibubur,,-6.343819,106.8695,1,,0,2,,
B01685P,,Jln. Tipar Selatan I,,-6.133679,106.92117,1,,0,2,,
B01686P,,Jln. Tomang Tinggi Gg. 1,,-6.170426,106.79911,1,,0,2,,
B01687P,,Jln. Tomang Utara II,,-6.170481,106.79915,1,,0,2,,
B01690P,,Jln. Trikora,,-6.304918,106.86567,1,,0,2,,
B01691P,,Jln. Tubagus Baddarudin,,-6.21249,106.89767,1,,0,2,,
B01692P,,Jln. Tugu Indah,,-6.123127,106.92665,1,,0,2,,
B01693P,,Jln. Ultra Violet,,-6.166096,106.90568,1,,0,2,,
B01695P,,Jln. Veteran 1,,-6.253781,106.83581,1,,0,2,,
B01696P,,Jln. Veteran 2,,-6.253771,106.83574,1,,0,2,,
B01697P,,Jln. Villa Ampera,,-6.273183,106.81589,1,,0,2,,
B01698P,,Jln. Warakas Gg 10,,-6.12535,106.87833,1,,0,2,,
B01699P,,Jln. Warakas I Gg. 2,,-6.116038,106.87912,1,,0,2,,
B01700P,,Jln. Warakas I Gg. 4,,-6.116587,106.8783,1,,0,2,,
B01701P,,Jln. Warakas I Gg. 5,,-6.117289,106.87716,1,,0,2,,
B01702P,,Jln. Warakas I Gg. 5B,,-6.116724,106.87801,1,,0,2,,
B01703P,,Jln. Warakas I Gg. 6,,-6.117145,106.87749,1,,0,2,,
B01704P,,Jln. Warakas I Gg. 8,,-6.117623,106.87674,1,,0,2,,
B01705P,,Jln. Warakas II,,-6.117016,106.88045,1,,0,2,,
B01706P,,Jln. Warakas III,,-6.118168,106.88087,1,,0,2,,
B01707P,,Jln. Warakas V,,-6.124062,106.88285,1,,0,2,,
B01708P,,Jln. Warakas VI Gg. 16,,-6.126026,106.87572,1,,0,2,,
B01709P,,Jln. Warakas VI Gg. 18,,-6.126027,106.87471,1,,0,2,,
B01710P,,Jln. Warakas VI Gg. 20,,-6.126022,106.87367,1,,0,2,,
B01711P,,Jln. Waru Raya Cilangkap,,-6.341002,106.90437,1,,0,2,,
B01712P,,Jln. Warung Sila Ciganjur,,-6.344895,106.80396,1,,0,2,,
B01713P,,Jln. Wijaya I,,-6.231789,106.88646,1,,0,2,,
B01714P,,Jln. Wisma Semar,,-6.310604,106.80571,1,,0,2,,
B01715P,,Jln. Wr Supratman,,-6.305661,106.75749,1,,0,2,,
B01716P,,Jln. WW Sukabumi Selatan,,-6.213665,106.77686,1,,0,2,,
B01717P,,Jln. Yunus 2 Sukabumi Utara,,-6.204318,106.78292,1,,0,2,,
B01718P,,Jln. Zakarian I Sulaiman,,-6.206147,106.78063,1,,0,2,,
B01719P,,Jambul,,-6.259055,106.86404,1,,0,2,,
B01720P,,Jamsostek,,-6.233804,106.82229,1,,0,2,,
B01721P,,Jamsostek Gatot Subroto,,-6.232925,106.82187,1,,0,2,,
B01722P,,Janur Kuning Residence,,-6.163191,106.90349,1,,0,2,,
B01723P,,Jasa Marga Cililitan 1,,-6.26477,106.87237,1,,0,2,,
B01724P,,Jasa Marga Cililitan 2,,-6.264703,106.87224,1,,0,2,,
B01725P,,Jasa Warga,,-6.380045,106.85354,1,,0,2,,
B01726P,,Jasamarga Toll Road Maintenance,,-6.291584,106.8807,1,,0,2,,
B01728P,,Jatibening 1,,-6.257161,106.94651,1,,0,2,,
B01729P,,Jatibening 2,,-6.257093,106.94168,1,,0,2,,
B01730P,,Jatinegara Kaum Raya Bekasi,,-6.203351,106.90407,1,,0,2,,
B01731P,,Jatinegara RS Primier 1,,-6.221992,106.86818,1,,0,2,,
B01732P,,Jatinegara Timur,,-6.220486,106.86825,1,,0,2,,
B01733P,,Jatipadang Raya,,-6.293986,106.82335,1,,0,2,,
B01735P,,Jelambar 1,,-6.166461,106.78707,1,,0,2,,
B01736P,,Jelambar 2,,-6.166706,106.78643,1,,0,2,,
B01737P,,Jembatan Biru,,-6.142184,106.83342,1,,0,2,,
B01738P,,Jembatan BKT Pendidikan Raya 1,,-6.229216,106.91736,1,,0,2,,
B01739P,,Jembatan BKT Pendidikan Raya 2,,-6.229245,106.91753,1,,0,2,,
B01740P,,Jembatan Buperta Tol Jagorawi,,-6.368267,106.89449,1,,0,2,,
B01741P,,Jembatan Cempaka Mas Utara,,-6.16198,106.87432,1,,0,2,,
B01745P,,Jembatan Item,,-6.130078,106.85492,1,,0,2,,
B01746P,,Jembatan Kali Tegal Amba,,-6.222926,106.90534,1,,0,2,,
B01747P,,Jembatan Kapuk Kamal PIS1,,-6.124383,106.75175,1,,0,2,,
B01748P,,Jembatan Kayu Jati 1,,-6.189407,106.88707,1,,0,2,,
B01749P,,Jembatan Kayu Jati 2,,-6.18936,106.88684,1,,0,2,,
B01750P,,Jembatan Kayu Putih Selatan,,-6.188486,106.89125,1,,0,2,,
B01751P,,Jembatan Kota Intan,,-6.132329,106.81055,1,,0,2,,
B01752P,,Jembatan Marunda Makmur,,-6.105728,106.96801,1,,0,2,,
B01753P,,Jembatan Merah 1,,-6.221164,106.84618,1,,0,2,,
B01754P,,Jembatan Merah 2,,-6.146531,106.83442,1,,0,2,,
B01755P,,Jembatan Merah 3,,-6.147901,106.8343,1,,0,2,,
B01756P,,Jembatan Pantai Indah Utara 1,,-6.121889,106.75204,1,,0,2,,
B01758P,,Jembatan Pedati Raya,,-6.22682,106.87054,1,,0,2,,
B01759P,,Jembatan Perempatan Cempaka Putih Timur,,-6.176422,106.87311,1,,0,2,,
B01760P,,Jembatan Pesakih Semanan,,-6.155824,106.716,1,,0,2,,
B01761P,,Jembatan Pintu 1,,-6.300551,106.88367,1,,0,2,,
B01762P,,Jembatan Pintu Satu,,-6.300382,106.88363,1,,0,2,,
B01763P,,Jembatan Pluit Karang Timur,,-6.112754,106.78439,1,,0,2,,
B01764P,,Jembatan Raya Prepedan,,-6.120539,106.70872,1,,0,2,,
B01765P,,Jembatan Sapi Cilincing Bakti,,-6.106641,106.93905,1,,0,2,,
B01767P,,Jembatan St. Jayakarta,,-6.14233,106.82384,1,,0,2,,
B01768P,,Jembatan Sungai Landak 1,,-6.104743,106.93983,1,,0,2,,
B01769P,,Jembatan Sungai Landak 2,,-6.104777,106.93998,1,,0,2,,
B01770P,,Jembatan Taman Kota,,-6.157634,106.75751,1,,0,2,,
B01771P,,Jembatan Tegal Amba,,-6.222874,106.90536,1,,0,2,,
B01773P,,Jembatan Tiga 2,,-6.132751,106.79245,1,,0,2,,
B01775P,,JGC Indonesia,,-6.292627,106.80196,1,,0,2,,
B01778P,,JIEP 1,,-6.192968,106.90579,1,,0,2,,
B01779P,,Jiep 2,,-6.192554,106.90569,1,,0,2,,
B01780P,,Joe,,-6.318127,106.83576,1,,0,2,,
B01781P,,Joglo,,-6.220009,106.74171,1,,0,2,,
B01784P,,JPO Asrama Polri Cideng,,-6.17963,106.81277,1,,0,2,,
B01785P,,JPO Barat Pondok Indah 1,,-6.28723,106.77936,1,,0,2,,
B01786P,,JPO Blok E,,-6.184738,106.81492,1,,0,2,,
B01787P,,JPO Blok G,,-6.188861,106.81135,1,,0,2,,
B01788P,,JPO Mandiri,,-6.184803,106.81513,1,,0,2,,
B01789P,,JPO Perjuangan,,-6.190412,106.76196,1,,0,2,,
B01790P,,JPO Timur Pondok Indah 1,,-6.287054,106.77989,1,,0,2,,
B01792P,,Juraganan,,-6.220342,106.79119,1,,0,2,,
B01793P,,Kali Besar Barat 1,,-6.135487,106.81131,1,,0,2,,
B01794P,,Kalibata City 1,,-6.255951,106.85404,1,,0,2,,
B01795P,,Kalibata City 2,,-6.255816,106.85237,1,,0,2,,
B01798P,,Kalideres 1,,-6.154249,106.70544,1,,0,2,,
B01799P,,Kalisari Lapan Balai Kimia,,-6.342833,106.85814,1,,0,2,,
B01802P,,Kampung Irian Gg. IV,,-6.155068,106.86172,1,,0,2,,
B01803P,,Kampung Jembatan Ngurah Rai,,-6.216438,106.92909,1,,0,2,,
B01804P,,Kampung Melayu Besar 2,,-6.225314,106.86292,1,,0,2,,
B01805P,,Kampung Melayu Kecil,,-6.22499,106.86306,1,,0,2,,
B01806P,,Kampung Padaengan 1,,-6.189361,106.93472,1,,0,2,,
B01807P,,Kampung Padaengan 2,,-6.189465,106.93484,1,,0,2,,
B01791P,,Juanda Istiqlal,,-6.168147,106.83112,1,,0,2,,
B01808P,,Kampus 2 Uin,,-6.305634,106.757674,1,,0,2,,
B01809P,,Kampus IISIP,,-6.323176,106.83487,1,,0,2,,
B01811P,,Kampus Uin 1,,-6.307572,106.75603,1,,0,2,,
B01812P,,Kampus Uin 2,,-6.307533,106.75621,1,,0,2,,
B01813P,,Kanisius,,-6.185327,106.83551,1,,0,2,,
B01816P,,Kantor Pos Cikini,,-6.187423,106.83654,1,,0,2,,
B01817P,,Kantor Pos Dukuh,,-6.291703,106.87567,1,,0,2,,
B01818P,,Kantor Pos Fatmawati,,-6.294496,106.79505,1,,0,2,,
B01819P,,Kantor Pos Halim 1,,-6.251277,106.88945,1,,0,2,,
B01820P,,Kantor Pos Halim 2,,-6.251103,106.88925,1,,0,2,,
B01821P,,Kantor Pos Jaktim,,-6.193674,106.9012,1,,0,2,,
B01822P,,Kantor Pos Kebayoran Lama,,-6.249119,106.778,1,,0,2,,
B01823P,,Kantor Pos Kb. Jeruk,,-6.197923,106.76353,1,,0,2,,
B01824P,,Kantor Pos Lapangan Banteng,,-6.16877,106.83507,1,,0,2,,
B01825P,,Kantor Pos Mampang,,-6.240216,106.82259,1,,0,2,,
B01828P,,Kapin,,-6.248853,106.93019,1,,0,2,,
B01829P,,Karang Asri,,-6.112414,106.77306,1,,0,2,,
B01830P,,Karang Asri 2,,-6.116073,106.77399,1,,0,2,,
B01831P,,Karet Kuningan 1,,-6.217406,106.83108,1,,0,2,,
B01832P,,Karet Kuningan 2,,-6.217312,106.83068,1,,0,2,,
B01833P,,Karet Pedurenan 1,,-6.221933,106.82093,1,,0,2,,
B01835P,,Karet Sudirman 1,,-6.212995,106.82,1,,0,2,,
B01837P,,Karet Sudirman 3,,-6.212197,106.81995,1,,0,2,,
B01838P,,Karet Tengsin,,-6.20698,106.81696,1,,0,2,,
B01839P,,Kartika Candra,,-6.228333,106.81878,1,,0,2,,
B01840P,,Kartini,,-6.199557,106.82891,1,,0,2,,
B01841P,,Kartini Hospital 1,,-6.238072,106.76997,1,,0,2,,
B01842P,,Kartini Hospital 2,,-6.237876,106.76942,1,,0,2,,
B01843P,,Kav Agraria Duren Sawit,,-6.247691,106.91204,1,,0,2,,
B01844P,,Kav Marinir Kalimalang,,-6.247975,106.92659,1,,0,2,,
B01846P,,Kav Polri Blok E Jagakarsa,,-6.314309,106.81633,1,,0,2,,
B01847P,,Kav Polri Blok H Jagakarsa,,-6.312293,106.81629,1,,0,2,,
B01848P,,Kavling DKI Meruya Selatan,,-6.21501,106.73194,1,,0,2,,
B01849P,,Kavling Pengadilan Jln. Dermaga,,-6.222991,106.9072,1,,0,2,,
B01850P,,Kayu Mas,,-6.17911,106.90255,1,,0,2,,
B01851P,,Kayu Tinggi,,-6.184407,106.94383,1,,0,2,,
B01852P,,Kayuringin 1,,-6.245825,106.99277,1,,0,2,,
B01853P,,Kayuringin 2,,-6.245948,106.99247,1,,0,2,,
B01854P,,KBN Marunda 1,,-6.110057,106.94448,1,,0,2,,
B01855P,,KBN Marunda 2,,-6.110318,106.94452,1,,0,2,,
B01856P,,KBN Sukapura,,-6.143928,106.92219,1,,0,2,,
B01857P,,Kebagusan Raya,,-6.296314,106.82703,1,,0,2,,
B01858P,,Kebantenan,,-6.114554,106.9264,1,,0,2,,
B01859P,,Kebayoran Baru Velbak 1,,-6.239561,106.78532,1,,0,2,,
B01861P,,Kb. Baru,,-6.115869,106.92448,1,,0,2,,
B01862P,,Kb. Jeruk 1,,-6.194741,106.76878,1,,0,2,,
B01863P,,Kb. Kangkung,,-6.179638,106.644,1,,0,2,,
B01864P,,Kb. Nanas,,-6.221291,106.63364,1,,0,2,,
B01865P,,Kec. Cakung,,-6.183887,106.94001,1,,0,2,,
B01866P,,Kec. Cengkareng 2,,-6.150125,106.72713,1,,0,2,,
B01867P,,Kec. Cilincing,,-6.102739,106.93894,1,,0,2,,
B01868P,,Kec. Cipayung,,-6.328612,106.88789,1,,0,2,,
B01869P,,Kec. Ciracas,,-6.319948,106.88311,1,,0,2,,
B01870P,,Kec. Grogol Petamburan,,-6.178341,106.7833,1,,0,2,,
B01871P,,Kec. Jagakarsa,,-6.334534,106.82144,1,,0,2,,
B01872P,,Kec. Johar Baru,,-6.182189,106.85617,1,,0,2,,
B01873P,,Kec. Kb. Jeruk,,-6.198513,106.76455,1,,0,2,,
B01874P,,Kec. Kelapa Gading,,-6.162414,106.9078,1,,0,2,,
B01875P,,Kec. Kembangan,,-6.195068,106.74247,1,,0,2,,
B01876P,,Kec. Koja,,-6.118034,106.91025,1,,0,2,,
B01877P,,Kec. Kramat Jati,,-6.284472,106.87141,1,,0,2,,
B01878P,,Kec. Kramat Jati 2,,-6.284729,106.87136,1,,0,2,,
B01879P,,Kec. Makasar,,-6.279139,106.87881,1,,0,2,,
B01880P,,Kec. Palmerah,,-6.199314,106.7877,1,,0,2,,
B01881P,,Kec. Pasar Minggu,,-6.285563,106.8353,1,,0,2,,
B01882P,,Kec. Pesanggrahan,,-6.256912,106.7564,1,,0,2,,
B01883P,,Kec. Pesanggrahan 1,,-6.257396,106.75633,1,,0,2,,
B01884P,,Kec. Pondok Gede,,-6.280944,106.91355,1,,0,2,,
B01885P,,Kec. Sawah Besar,,-6.151629,106.8274,1,,0,2,,
B01887P,,Kec. Tanah Abang,,-6.200098,106.815,1,,0,2,,
B01890P,,Kedawu Residence Ciracas,,-6.338318,106.87967,1,,0,2,,
B01891P,,Kedondong,,-6.383095,106.82952,1,,0,2,,
B01893P,,Kedubes Malaysia,,-6.22384,106.83259,1,,0,2,,
B01894P,,Kehakiman,,-6.176674,106.64456,1,,0,2,,
B01897P,,Kelapa Cengkir Barat VIII,,-6.164826,106.90622,1,,0,2,,
B01898P,,Kelapa Cengkir Barat XI,,-6.163816,106.9068,1,,0,2,,
B01896P,,Kejaksaan Negeri Jakbar,,-6.184648,106.73731,1,,0,2,,
B01888P,,Kec. Tebet 1,,-6.23204,106.84534,1,,0,2,,
B01889P,,Kec. Tebet 2,,-6.23151,106.84564,1,,0,2,,
B01826P,,Kantor Pos Pondok Bambu,,-6.231973,106.89742,1,,0,2,,
B01834P,,Karet Pedurenan 2,,-6.221462,106.82109,1,,0,2,,
B01899P,,Kelapa Dua Sasak 1,,-6.205051,106.76931,1,,0,2,,
B01900P,,Kelapa Gading Square,,-6.149744,106.88993,1,,0,2,,
B01901P,,Kelapa Gading Utama,,-6.176481,106.89487,1,,0,2,,
B01902P,,Kel. Balekambang,,-6.28163,106.84996,1,,0,2,,
B01903P,,Kel. Batu Ampar,,-6.283309,106.85943,1,,0,2,,
B01904P,,Kel. Benhil,,-6.201552,106.80809,1,,0,2,,
B01907P,,Kel. Cibubur,,-6.349525,106.87666,1,,0,2,,
B01908P,,Kel. Cijantung,,-6.325792,106.8619,1,,0,2,,
B01909P,,Kel. Cililitan,,-6.259599,106.86875,1,,0,2,,
B01910P,,Kel. Cilincing,,-6.107088,106.93815,1,,0,2,,
B01911P,,Kel. Ciracas,,-6.328805,106.8775,1,,0,2,,
B01912P,,Kel. Dukuh,,-6.292349,106.877,1,,0,2,,
B01913P,,Kel. Duren Sawit,,-6.230817,106.91423,1,,0,2,,
B01914P,,Kel. Duri Kepa,,-6.185225,106.77307,1,,0,2,,
B01915P,,Kel. Duri Kosambi,,-6.170102,106.7226,1,,0,2,,
B01917P,,Kel. Grogol Utara,,-6.208498,106.78924,1,,0,2,,
B01918P,,Kel. Halim Perdana Kusuma,,-6.267932,106.87743,1,,0,2,,
B01919P,,Kel. Jati Pulo,,-6.175757,106.80318,1,,0,2,,
B01920P,,Kel. Jelambar,,-6.161564,106.78166,1,,0,2,,
B01921P,,Kel. Kalisari,,-6.33716,106.85613,1,,0,2,,
B01922P,,Kel. Kamal,,-6.104683,106.70625,1,,0,2,,
B01923P,,Kel. Kamal Muara,,-6.098565,106.7143,1,,0,2,,
B01924P,,Kel. Kayu Putih,,-6.18578,106.88844,1,,0,2,,
B01925P,,Kel. Kb. Kacang,,-6.190837,106.81501,1,,0,2,,
B01926P,,Kel. Kelapa Gading Timur,,-6.166273,106.90243,1,,0,2,,
B01927P,,Kel. Lagoa,,-6.113902,106.91097,1,,0,2,,
B01928P,,Kel. Lebak Bulus,,-6.3031,106.7848,1,,0,2,,
B01929P,,Kel. Makasar,,-6.278463,106.87842,1,,0,2,,
B01931P,,Kel. Meruya Selatan,,-6.214842,106.73657,1,,0,2,,
B01932P,,Kel. Pegangsaan Dua,,-6.1546,106.91056,1,,0,2,,
B01934P,,Kel. Penggilingan,,-6.202675,106.93106,1,,0,2,,
B01935P,,Kel. Pesanggrahan 2,,-6.255333,106.756496,1,,0,2,,
